[
  {
    "id": "1",
    "duration": "900",
    "location": "9520 Skørping",
    "witnesses": "1",
    "colors": "grøn",
    "notes": null,
    "latitude": "57.3705",
    "longitude": "9.71125",
    "datetime": "1995-10-10 04:00:00"
  },
  {
    "id": "2",
    "duration": "240",
    "location": "4060 Kirke Såby",
    "witnesses": "3",
    "colors": "hvid",
    "notes": null,
    "latitude": "55.6423",
    "longitude": "11.8548",
    "datetime": "1995-10-21 18:30:00"
  },
  {
    "id": "3",
    "duration": "1800",
    "location": "3230 Græsted",
    "witnesses": "3",
    "colors": "hvid",
    "notes": "projektørlys",
    "latitude": "56.0728",
    "longitude": "12.2867",
    "datetime": "1995-10-28 00:00:00"
  },
  {
    "id": "4",
    "duration": "7200",
    "location": "9480 Løkken",
    "witnesses": "3",
    "colors": "grøn, gul, orange, lilla",
    "notes": null,
    "latitude": "57.3705",
    "longitude": "9.71125",
    "datetime": "1996-05-05 23:00:00"
  },
  {
    "id": "5",
    "duration": "7200",
    "location": "9480 Løkken",
    "witnesses": "3",
    "colors": "grøn, gul, orange, lilla",
    "notes": null,
    "latitude": "57.3705",
    "longitude": "9.71125",
    "datetime": "1996-06-05 23:00:00"
  },
  {
    "id": "6",
    "duration": "15",
    "location": "6100 Haderslev",
    "witnesses": "1",
    "colors": "rød",
    "notes": null,
    "latitude": "55.2501",
    "longitude": "9.49979",
    "datetime": "1996-03-06 00:45:00"
  },
  {
    "id": "8",
    "duration": "30",
    "location": "9400 Nørresundby",
    "witnesses": "1",
    "colors": "grå",
    "notes": null,
    "latitude": "57.0607",
    "longitude": "9.92413",
    "datetime": "1996-01-07 00:12:00"
  },
  {
    "id": "9",
    "duration": "10800",
    "location": "9490 Pandrup",
    "witnesses": "2",
    "colors": "hvid, gul",
    "notes": null,
    "latitude": "57.2094",
    "longitude": "9.67901",
    "datetime": "1996-08-07 00:00:00"
  },
  {
    "id": "10",
    "duration": "10800",
    "location": "9490 Pandrup",
    "witnesses": "2",
    "colors": "hvid, gul",
    "notes": null,
    "latitude": "57.2094",
    "longitude": "9.67901",
    "datetime": "1996-10-07 00:00:00"
  },
  {
    "id": "11",
    "duration": "3600",
    "location": "2300 Kbh. S",
    "witnesses": "2",
    "colors": "hvid",
    "notes": null,
    "latitude": "55.648",
    "longitude": "12.6254",
    "datetime": "1996-07-19 03:10:00"
  },
  {
    "id": "12",
    "duration": "60",
    "location": "3400 Hillerød",
    "witnesses": "2",
    "colors": "hvidgul",
    "notes": "helikopter",
    "latitude": "55.9286",
    "longitude": "12.3064",
    "datetime": "1996-07-19 22:27:00"
  },
  {
    "id": "13",
    "duration": "3600",
    "location": "7430 Ikast",
    "witnesses": "10",
    "colors": "hvid",
    "notes": "Vega",
    "latitude": "56.139",
    "longitude": "9.15479",
    "datetime": "1996-07-19 23:00:00"
  },
  {
    "id": "14",
    "duration": "900",
    "location": "5800 Nyborg",
    "witnesses": null,
    "colors": "hvid",
    "notes": null,
    "latitude": "55.3098",
    "longitude": "10.7977",
    "datetime": "1996-07-20 04:00:00"
  },
  {
    "id": "15",
    "duration": "180",
    "location": "4305 Holbæk",
    "witnesses": "1",
    "colors": "grå",
    "notes": "luftskib",
    "latitude": "55.6417",
    "longitude": "12.55",
    "datetime": "1996-07-20 16:00:00"
  },
  {
    "id": "16",
    "duration": "2400",
    "location": "6200 Aabenraa",
    "witnesses": "2",
    "colors": "hvid",
    "notes": "Laserlys",
    "latitude": "55.0446",
    "longitude": "9.42097",
    "datetime": "1996-07-21 00:40:00"
  },
  {
    "id": "17",
    "duration": "180",
    "location": "6430 Nordborg",
    "witnesses": "1",
    "colors": "blåhvid",
    "notes": "laserlys",
    "latitude": "55.019",
    "longitude": "9.81694",
    "datetime": "1996-07-21 00:58:00"
  },
  {
    "id": "18",
    "duration": null,
    "location": "4305 Holbæk",
    "witnesses": "1",
    "colors": "grå",
    "notes": "luftskib",
    "latitude": "55.6417",
    "longitude": "12.55",
    "datetime": "1996-07-21 16:30:00"
  },
  {
    "id": "19",
    "duration": null,
    "location": "5450 Otterup",
    "witnesses": "2",
    "colors": "rød",
    "notes": null,
    "latitude": "55.5154",
    "longitude": "10.4005",
    "datetime": "1996-07-22 00:00:00"
  },
  {
    "id": "20",
    "duration": "60",
    "location": "4571 Grevinge",
    "witnesses": "1",
    "colors": "hvidgul",
    "notes": null,
    "latitude": "55.7884",
    "longitude": "11.5824",
    "datetime": "1996-07-22 22:20:00"
  },
  {
    "id": "21",
    "duration": "900",
    "location": "5800 Nyborg",
    "witnesses": null,
    "colors": "hvid",
    "notes": null,
    "latitude": "55.3098",
    "longitude": "10.7977",
    "datetime": "1996-07-27 04:00:00"
  },
  {
    "id": "23",
    "duration": "3600",
    "location": "3230, Græsted",
    "witnesses": "2",
    "colors": "hvid",
    "notes": "laserlys",
    "latitude": "56.0632",
    "longitude": "12.2844",
    "datetime": "1996-03-08 02:30:00"
  },
  {
    "id": "24",
    "duration": "300",
    "location": "5560 Årup",
    "witnesses": "2",
    "colors": "hvid, neon",
    "notes": "laserlys",
    "latitude": "55.3763",
    "longitude": "10.0511",
    "datetime": "1996-03-08 23:00:00"
  },
  {
    "id": "25",
    "duration": "900",
    "location": "5560 Årup",
    "witnesses": "4",
    "colors": "hvid",
    "notes": "laserlys",
    "latitude": "55.3763",
    "longitude": "10.0511",
    "datetime": "1996-03-08 23:15:00"
  },
  {
    "id": "26",
    "duration": null,
    "location": "6200 Aabenraa",
    "witnesses": null,
    "colors": "NULL",
    "notes": "Jupiter",
    "latitude": "55.0446",
    "longitude": "9.42097",
    "datetime": "1996-03-08 23:30:00"
  },
  {
    "id": "27",
    "duration": "240",
    "location": "5463 Harndrup",
    "witnesses": "2",
    "colors": "flere",
    "notes": "laserlys",
    "latitude": "55.4652",
    "longitude": "10.0185",
    "datetime": "1996-03-08 23:30:00"
  },
  {
    "id": "28",
    "duration": "120",
    "location": "9220 Aalborg Øst",
    "witnesses": "3",
    "colors": "hvid, gul.",
    "notes": null,
    "latitude": "57.0443",
    "longitude": "9.97564",
    "datetime": "1996-04-08 20:00:00"
  },
  {
    "id": "29",
    "duration": null,
    "location": "2670 Greve",
    "witnesses": null,
    "colors": "NULL",
    "notes": null,
    "latitude": "55.5917",
    "longitude": "12.3053",
    "datetime": "1996-06-08 20:00:00"
  },
  {
    "id": "30",
    "duration": "30",
    "location": "3060 Espergærde",
    "witnesses": "1",
    "colors": "hvid",
    "notes": "fugl",
    "latitude": "55.9908",
    "longitude": "12.553",
    "datetime": "1996-07-08 00:27:00"
  },
  {
    "id": "31",
    "duration": "60",
    "location": "9230 Svenstrup",
    "witnesses": "1",
    "colors": "klar",
    "notes": null,
    "latitude": "56.9709",
    "longitude": "9.84364",
    "datetime": "1996-08-15 22:00:00"
  },
  {
    "id": "32",
    "duration": "4",
    "location": "7100 Vejle",
    "witnesses": "7",
    "colors": "brun, orange",
    "notes": "meteor",
    "latitude": "55.7",
    "longitude": "9.53332",
    "datetime": "1996-08-17 22:50:00"
  },
  {
    "id": "33",
    "duration": "5400",
    "location": "6700 Esbjerg",
    "witnesses": "1",
    "colors": "klar",
    "notes": null,
    "latitude": "55.4665",
    "longitude": "8.45208",
    "datetime": "1996-08-18 03:50:00"
  },
  {
    "id": "34",
    "duration": "180",
    "location": "2630 Tåstrup",
    "witnesses": "3",
    "colors": "hvid",
    "notes": "projektørlys",
    "latitude": "55.6519",
    "longitude": "12.3176",
    "datetime": "1996-08-18 23:15:00"
  },
  {
    "id": "35",
    "duration": "240",
    "location": "3660 Stenløse",
    "witnesses": "1",
    "colors": "hvid, rød",
    "notes": "fly",
    "latitude": "55.7683",
    "longitude": "12.1986",
    "datetime": "1996-08-19 01:20:00"
  },
  {
    "id": "36",
    "duration": "900",
    "location": "2300 Kbh. S",
    "witnesses": "2",
    "colors": "flere",
    "notes": null,
    "latitude": "55.648",
    "longitude": "12.6254",
    "datetime": "1996-08-20 23:30:00"
  },
  {
    "id": "37",
    "duration": "90",
    "location": "8000 Aarhus",
    "witnesses": "1",
    "colors": "klar",
    "notes": null,
    "latitude": "56.1537",
    "longitude": "10.2008",
    "datetime": "1996-08-21 00:40:00"
  },
  {
    "id": "38",
    "duration": null,
    "location": "2680 Solrød Strand",
    "witnesses": "3",
    "colors": "hvid, gul",
    "notes": "Venus",
    "latitude": "55.5343",
    "longitude": "12.2193",
    "datetime": "1996-08-26 05:05:00"
  },
  {
    "id": "39",
    "duration": "300",
    "location": "3000 Helsingør",
    "witnesses": "1",
    "colors": "hvid, rød",
    "notes": null,
    "latitude": "56.0349",
    "longitude": "12.613",
    "datetime": "1996-08-27 20:55:00"
  },
  {
    "id": "40",
    "duration": "600",
    "location": "2800 Lyngby",
    "witnesses": "1",
    "colors": "rød",
    "notes": "projektørlys",
    "latitude": "55.7832",
    "longitude": "12.5012",
    "datetime": "1996-08-30 21:30:00"
  },
  {
    "id": "41",
    "duration": "600",
    "location": "1850 Frederiksberg C",
    "witnesses": "1",
    "colors": "hvid, rød, blå",
    "notes": "projektørlys",
    "latitude": "55.676",
    "longitude": "12.5429",
    "datetime": "1996-08-30 21:40:00"
  },
  {
    "id": "42",
    "duration": "300",
    "location": "2100 København Ø",
    "witnesses": "1",
    "colors": "NULL",
    "notes": null,
    "latitude": "55.3997",
    "longitude": "10.3852",
    "datetime": "1996-08-30 22:00:00"
  },
  {
    "id": "43",
    "duration": "180",
    "location": "7442 Engesvang",
    "witnesses": "1",
    "colors": "hvid",
    "notes": null,
    "latitude": "56.1703",
    "longitude": "9.35119",
    "datetime": "1996-01-09 22:00:00"
  },
  {
    "id": "44",
    "duration": null,
    "location": "8220 Brabrand",
    "witnesses": null,
    "colors": "rød, grøn, hvid",
    "notes": null,
    "latitude": "56.1532",
    "longitude": "10.1024",
    "datetime": "1996-04-09 18:00:00"
  },
  {
    "id": "45",
    "duration": "2160",
    "location": "2730 Herlev",
    "witnesses": "1",
    "colors": "hvid",
    "notes": "projektørlys",
    "latitude": "55.7248",
    "longitude": "12.4377",
    "datetime": "1996-06-09 00:15:00"
  },
  {
    "id": "46",
    "duration": null,
    "location": "2800 Lyngby og3460 Birkerød",
    "witnesses": null,
    "colors": "hvid",
    "notes": "projektørlys",
    "latitude": "55.7719",
    "longitude": "12.5051",
    "datetime": "1996-07-09 20:00:00"
  },
  {
    "id": "47",
    "duration": "1800",
    "location": "4760 Vordingborg",
    "witnesses": "1",
    "colors": "hvid",
    "notes": "projektørlys",
    "latitude": "55.0056",
    "longitude": "11.9078",
    "datetime": "1996-07-09 22:15:00"
  },
  {
    "id": "48",
    "duration": "1800",
    "location": "4771 Klavehave",
    "witnesses": "2",
    "colors": "hvid",
    "notes": "projektørlys",
    "latitude": "55.0022",
    "longitude": "12.1474",
    "datetime": "1996-08-09 02:10:00"
  },
  {
    "id": "49",
    "duration": "300",
    "location": "4771 Klavehave",
    "witnesses": "1",
    "colors": "hvid",
    "notes": "projektørlys",
    "latitude": "55.0022",
    "longitude": "12.1474",
    "datetime": "1996-08-09 04:15:00"
  },
  {
    "id": "50",
    "duration": null,
    "location": "7100 Vejle",
    "witnesses": "1",
    "colors": "hvid, rød",
    "notes": "Månen og Venus",
    "latitude": "55.7",
    "longitude": "9.53332",
    "datetime": "1996-09-09 03:50:00"
  },
  {
    "id": "51",
    "duration": null,
    "location": "4760 Vordingborg",
    "witnesses": null,
    "colors": "NULL",
    "notes": "projektørlys",
    "latitude": "55.0103",
    "longitude": "11.9097",
    "datetime": "1996-11-09 22:30:00"
  },
  {
    "id": "52",
    "duration": "420",
    "location": "4792 Askeby",
    "witnesses": "2",
    "colors": "hvid",
    "notes": "projektørlys",
    "latitude": "54.9199",
    "longitude": "12.1729",
    "datetime": "1996-09-15 03:00:00"
  },
  {
    "id": "53",
    "duration": "1200",
    "location": "5200 Odense SØ",
    "witnesses": "2",
    "colors": "sort, lys",
    "notes": "fly",
    "latitude": "55.3956",
    "longitude": "10.3417",
    "datetime": "1996-09-15 19:00:00"
  },
  {
    "id": "54",
    "duration": "1",
    "location": "2640 Hedehusene",
    "witnesses": "1",
    "colors": "brun, grå",
    "notes": "meteor",
    "latitude": "55.652",
    "longitude": "12.1971",
    "datetime": "1996-09-15 22:00:00"
  },
  {
    "id": "55",
    "duration": "5",
    "location": "3660 Stenløse",
    "witnesses": "1",
    "colors": "rød, orange",
    "notes": "meteor",
    "latitude": "55.7683",
    "longitude": "12.1986",
    "datetime": "1996-09-18 23:20:00"
  },
  {
    "id": "56",
    "duration": "1800",
    "location": "2800 Lyngby",
    "witnesses": "2",
    "colors": "hvid",
    "notes": null,
    "latitude": "55.7832",
    "longitude": "12.5012",
    "datetime": "1996-09-17 13:50:00"
  },
  {
    "id": "57",
    "duration": null,
    "location": "5240 Odense NØ",
    "witnesses": null,
    "colors": "rød, grøn, gul, blå",
    "notes": "stjerner",
    "latitude": "55.4317",
    "longitude": "10.4392",
    "datetime": "1996-09-20 22:36:00"
  },
  {
    "id": "58",
    "duration": "180",
    "location": "2830 Virum",
    "witnesses": "2",
    "colors": "hvid",
    "notes": "projektørlys",
    "latitude": "55.794",
    "longitude": "12.4695",
    "datetime": "1996-09-20 23:15:00"
  },
  {
    "id": "59",
    "duration": "15",
    "location": "7323 Give",
    "witnesses": "2",
    "colors": "mørk",
    "notes": "fly",
    "latitude": "55.8456",
    "longitude": "9.24015",
    "datetime": "1996-09-21 21:30:00"
  },
  {
    "id": "60",
    "duration": "600",
    "location": "2860 Søborg",
    "witnesses": "1",
    "colors": "lys",
    "notes": null,
    "latitude": "55.7365",
    "longitude": "12.5089",
    "datetime": "1996-09-26 18:50:00"
  },
  {
    "id": "61",
    "duration": "4020",
    "location": "4920 Søllested",
    "witnesses": "2",
    "colors": "rød, hvid",
    "notes": "Venus",
    "latitude": "54.8124",
    "longitude": "11.271",
    "datetime": "1996-09-28 04:20:00"
  },
  {
    "id": "62",
    "duration": "10800",
    "location": "8370 Hadsten",
    "witnesses": null,
    "colors": "hvid",
    "notes": "projektørlys",
    "latitude": "56.3291",
    "longitude": "10.0524",
    "datetime": "1996-01-11 19:00:00"
  },
  {
    "id": "63",
    "duration": "1800",
    "location": "8870 Langå",
    "witnesses": null,
    "colors": "gul",
    "notes": "projektørlys",
    "latitude": "56.9764",
    "longitude": "12.4414",
    "datetime": "1996-01-11 19:00:00"
  },
  {
    "id": "64",
    "duration": "300",
    "location": "2200 København N",
    "witnesses": "4",
    "colors": "rød, hvid",
    "notes": null,
    "latitude": "57.0463",
    "longitude": "9.92153",
    "datetime": "1996-03-11 22:50:00"
  },
  {
    "id": "65",
    "duration": "900",
    "location": "2500 Valby",
    "witnesses": "2",
    "colors": "gul, hvid",
    "notes": "projektørlys",
    "latitude": "55.6618",
    "longitude": "12.517",
    "datetime": "1996-05-11 19:00:00"
  },
  {
    "id": "66",
    "duration": null,
    "location": "2650 Hvidovre",
    "witnesses": "1",
    "colors": "hvid",
    "notes": "projektørlys",
    "latitude": "55.6442",
    "longitude": "12.4772",
    "datetime": "1996-05-11 19:30:00"
  },
  {
    "id": "67",
    "duration": "5",
    "location": "6510 Gram",
    "witnesses": "1",
    "colors": "blå",
    "notes": null,
    "latitude": "55.287",
    "longitude": "9.04633",
    "datetime": "1996-06-11 17:53:00"
  },
  {
    "id": "68",
    "duration": null,
    "location": "2500 Valby",
    "witnesses": "2",
    "colors": null,
    "notes": "projektørlys",
    "latitude": "55.6618",
    "longitude": "12.517",
    "datetime": "1996-06-11 21:00:00"
  },
  {
    "id": "69",
    "duration": "900",
    "location": "2500 Valby",
    "witnesses": null,
    "colors": "NULL",
    "notes": "projektørlys",
    "latitude": "55.6618",
    "longitude": "12.517",
    "datetime": "1996-08-11 23:00:00"
  },
  {
    "id": "70",
    "duration": "5400",
    "location": "2730 Herlev",
    "witnesses": "9",
    "colors": "hvid",
    "notes": "projektørlys",
    "latitude": "55.7248",
    "longitude": "12.4377",
    "datetime": "1996-10-11 21:45:00"
  },
  {
    "id": "71",
    "duration": "120",
    "location": "5500 Middelfart",
    "witnesses": "1",
    "colors": "rød, hvid",
    "notes": null,
    "latitude": "55.5033",
    "longitude": "9.74946",
    "datetime": "1996-11-13 05:50:00"
  },
  {
    "id": "72",
    "duration": "3",
    "location": "8680 Ry",
    "witnesses": "1",
    "colors": "gul",
    "notes": null,
    "latitude": "56.0884",
    "longitude": "9.77188",
    "datetime": "1996-11-13 19:45:00"
  },
  {
    "id": "73",
    "duration": "210",
    "location": "9530 Støvring",
    "witnesses": "2",
    "colors": "hvid, blå",
    "notes": null,
    "latitude": "56.8919",
    "longitude": "9.84377",
    "datetime": "1996-11-13 19:45:00"
  },
  {
    "id": "74",
    "duration": "4",
    "location": "2700 Brønshøj",
    "witnesses": "2",
    "colors": "rødbrun, lys",
    "notes": null,
    "latitude": "55.7041",
    "longitude": "12.4985",
    "datetime": "1996-11-14 22:50:00"
  },
  {
    "id": "75",
    "duration": "3",
    "location": "4180 Sorø",
    "witnesses": "1",
    "colors": "rød",
    "notes": null,
    "latitude": "55.4366",
    "longitude": "11.5629",
    "datetime": "1996-11-14 23:38:00"
  },
  {
    "id": "76",
    "duration": "1800",
    "location": "3250 Gilleleje",
    "witnesses": "2",
    "colors": "gul, hvid, rød",
    "notes": null,
    "latitude": "56.1244",
    "longitude": "12.3124",
    "datetime": "1996-11-15 21:09:00"
  },
  {
    "id": "77",
    "duration": "7200",
    "location": "4220 Korsør",
    "witnesses": "2",
    "colors": "rød, blå, grøn, orange",
    "notes": "Sirius",
    "latitude": "55.3415",
    "longitude": "11.1367",
    "datetime": "1996-11-15 23:55:00"
  },
  {
    "id": "78",
    "duration": "2",
    "location": "4900 Nakskov",
    "witnesses": "1",
    "colors": "lysrød",
    "notes": null,
    "latitude": "54.8305",
    "longitude": "11.1494",
    "datetime": "1996-11-16 23:55:00"
  },
  {
    "id": "79",
    "duration": "240",
    "location": "4000 Roskilde",
    "witnesses": "2",
    "colors": "hvid",
    "notes": "stjerne",
    "latitude": "55.5983",
    "longitude": "12.1409",
    "datetime": "1996-11-17 12:00:00"
  },
  {
    "id": "80",
    "duration": null,
    "location": "7480 Vildbjerg",
    "witnesses": null,
    "colors": "NULL",
    "notes": "meteor\/satellit-undergang",
    "latitude": "56.1965",
    "longitude": "8.7677",
    "datetime": "1996-11-19 16:44:00"
  },
  {
    "id": "81",
    "duration": "600",
    "location": "9700 Brønderslev",
    "witnesses": "1",
    "colors": "gul",
    "notes": null,
    "latitude": "57.27",
    "longitude": "9.94486",
    "datetime": "1996-06-12 16:00:00"
  },
  {
    "id": "82",
    "duration": "5",
    "location": "2820 Gentofte",
    "witnesses": null,
    "colors": "orange",
    "notes": null,
    "latitude": "55.746",
    "longitude": "12.551",
    "datetime": "1996-12-13 18:01:00"
  },
  {
    "id": "83",
    "duration": "240",
    "location": "8870 Langå",
    "witnesses": "7",
    "colors": "gul, rød, grøn, hvid",
    "notes": null,
    "latitude": "56.391",
    "longitude": "9.89363",
    "datetime": "1996-12-13 21:00:00"
  },
  {
    "id": "84",
    "duration": "1",
    "location": "2650 Hvidovre",
    "witnesses": "1",
    "colors": "gul",
    "notes": "meteor",
    "latitude": "55.6442",
    "longitude": "12.4772",
    "datetime": "1996-12-16 05:25:00"
  },
  {
    "id": "85",
    "duration": null,
    "location": "8900 Randers",
    "witnesses": "1",
    "colors": "hvid, rød",
    "notes": "meteor",
    "latitude": "56.4654",
    "longitude": "10.0333",
    "datetime": "1996-12-16 05:40:00"
  },
  {
    "id": "86",
    "duration": "5",
    "location": "8900 Randers",
    "witnesses": "1",
    "colors": "hvid",
    "notes": "meteor",
    "latitude": "56.4654",
    "longitude": "10.0333",
    "datetime": "1996-12-16 07:40:00"
  },
  {
    "id": "87",
    "duration": "0",
    "location": "3140 Ålsgård",
    "witnesses": null,
    "colors": "hvid",
    "notes": null,
    "latitude": "56.0765",
    "longitude": "12.534",
    "datetime": "1996-12-16 15:50:00"
  },
  {
    "id": "88",
    "duration": "3600",
    "location": "3480 Fredensborg",
    "witnesses": null,
    "colors": "NULL",
    "notes": "projektørlys",
    "latitude": "55.974",
    "longitude": "12.4051",
    "datetime": "1996-12-16 17:45:00"
  },
  {
    "id": "89",
    "duration": "300",
    "location": "3400 Hillerød",
    "witnesses": "2",
    "colors": "NULL",
    "notes": null,
    "latitude": "55.9468",
    "longitude": "12.3123",
    "datetime": "1996-12-16 19:56:00"
  },
  {
    "id": "90",
    "duration": "240",
    "location": "4400 Kalundborg",
    "witnesses": "2",
    "colors": "hvid, blå, rød, gul",
    "notes": "NB! Videosag!",
    "latitude": "55.6834",
    "longitude": "11.0994",
    "datetime": "1996-12-19 20:00:00"
  },
  {
    "id": "91",
    "duration": "3600",
    "location": "3300 Frederiksværk",
    "witnesses": "1",
    "colors": "hvid, gul",
    "notes": "projektørlys",
    "latitude": "55.9737",
    "longitude": "12.0211",
    "datetime": "1996-12-20 05:30:00"
  },
  {
    "id": "92",
    "duration": "8",
    "location": "3300 Frederiksværk",
    "witnesses": "1",
    "colors": "grå, hvid",
    "notes": null,
    "latitude": "55.9737",
    "longitude": "12.0211",
    "datetime": "1996-12-20 06:20:00"
  },
  {
    "id": "93",
    "duration": "120",
    "location": "4450 Jyderup",
    "witnesses": "1",
    "colors": "gul, rød",
    "notes": null,
    "latitude": "55.6605",
    "longitude": "11.4082",
    "datetime": "1996-12-20 15:00:00"
  },
  {
    "id": "94",
    "duration": null,
    "location": "6100 Haderslev",
    "witnesses": null,
    "colors": "rød, blå, hvid",
    "notes": "NB! Videosag!",
    "latitude": "55.2501",
    "longitude": "9.49979",
    "datetime": "1996-12-21 06:45:00"
  },
  {
    "id": "95",
    "duration": "1200",
    "location": "5620 Glamsbjerg",
    "witnesses": "2",
    "colors": "violet, rød, hvid",
    "notes": "projektørlys",
    "latitude": "55.2783",
    "longitude": "10.1087",
    "datetime": "1996-12-22 04:00:00"
  },
  {
    "id": "96",
    "duration": "1500",
    "location": "3210 Vejby",
    "witnesses": "1",
    "colors": "orangegul, hvid",
    "notes": null,
    "latitude": "56.0655",
    "longitude": "12.1409",
    "datetime": "1996-12-23 15:30:00"
  },
  {
    "id": "97",
    "duration": "1200",
    "location": "2930 Klampenborg",
    "witnesses": "2",
    "colors": "hvid",
    "notes": null,
    "latitude": "55.7721",
    "longitude": "12.5878",
    "datetime": "1996-12-24 07:00:00"
  },
  {
    "id": "98",
    "duration": "2700",
    "location": "8370 Hadsten",
    "witnesses": "2",
    "colors": "NULL",
    "notes": "projektørlys",
    "latitude": "56.3291",
    "longitude": "10.0524",
    "datetime": "1996-12-26 19:45:00"
  },
  {
    "id": "99",
    "duration": "180",
    "location": "8300 Odder",
    "witnesses": "1",
    "colors": "hvid",
    "notes": "projektørlys",
    "latitude": "55.9758",
    "longitude": "10.1513",
    "datetime": "1996-12-27 06:30:00"
  },
  {
    "id": "100",
    "duration": "2100",
    "location": "4330 Hvalsø",
    "witnesses": null,
    "colors": "hvid, gul",
    "notes": "projektørlys",
    "latitude": "55.5939",
    "longitude": "11.8602",
    "datetime": "1996-12-28 19:30:00"
  },
  {
    "id": "101",
    "duration": null,
    "location": "4140 Borup",
    "witnesses": null,
    "colors": "hvid",
    "notes": "projektørlys",
    "latitude": "55.4955",
    "longitude": "11.9833",
    "datetime": "1996-12-28 20:10:00"
  },
  {
    "id": "102",
    "duration": null,
    "location": "4632 Bjæverskov",
    "witnesses": null,
    "colors": "NULL",
    "notes": "projektørlys",
    "latitude": "55.4592",
    "longitude": "12.0284",
    "datetime": "1996-12-28 20:30:00"
  },
  {
    "id": "103",
    "duration": "2100",
    "location": "4130 Viby",
    "witnesses": "2",
    "colors": "NULL",
    "notes": "projektørlys",
    "latitude": "55.5486",
    "longitude": "12.0241",
    "datetime": "1996-12-28 20:40:00"
  },
  {
    "id": "104",
    "duration": "5400",
    "location": "4140 Borup",
    "witnesses": null,
    "colors": "hvid, gul",
    "notes": "projektørlys",
    "latitude": "55.4955",
    "longitude": "11.9833",
    "datetime": "1996-12-28 20:42:00"
  },
  {
    "id": "105",
    "duration": "900",
    "location": "4683 Rønnede",
    "witnesses": "1",
    "colors": "hvid",
    "notes": "projektørlys",
    "latitude": "55.2563",
    "longitude": "12.0285",
    "datetime": "1996-12-28 20:45:00"
  },
  {
    "id": "106",
    "duration": null,
    "location": "4130 Viby",
    "witnesses": "2",
    "colors": "hvid",
    "notes": "projektørlys",
    "latitude": "55.5486",
    "longitude": "12.0241",
    "datetime": "1996-12-28 21:00:00"
  },
  {
    "id": "107",
    "duration": "7200",
    "location": "4690 Haslev",
    "witnesses": null,
    "colors": "NULL",
    "notes": "projektørlys",
    "latitude": "55.3271",
    "longitude": "11.9567",
    "datetime": "1996-12-28 21:00:00"
  },
  {
    "id": "108",
    "duration": "1800",
    "location": "4140 Borup",
    "witnesses": "2",
    "colors": "blå, hvid",
    "notes": "projektørlys",
    "latitude": "55.4955",
    "longitude": "11.9833",
    "datetime": "1996-12-28 21:00:00"
  },
  {
    "id": "109",
    "duration": "1800",
    "location": "4420 Regstrup",
    "witnesses": "2",
    "colors": "NULL",
    "notes": "projektørlys",
    "latitude": "55.6736",
    "longitude": "11.6185",
    "datetime": "1996-12-28 21:00:00"
  },
  {
    "id": "110",
    "duration": "5400",
    "location": "4370 Store Merløse",
    "witnesses": "2",
    "colors": "hvid",
    "notes": "projektørlys",
    "latitude": "55.5445",
    "longitude": "11.7145",
    "datetime": "1996-12-28 21:30:00"
  },
  {
    "id": "111",
    "duration": "120",
    "location": "4130 Randers",
    "witnesses": null,
    "colors": "NULL",
    "notes": "projektørlys",
    "latitude": "56.4304",
    "longitude": "10.0654",
    "datetime": "1996-12-28 21:45:00"
  },
  {
    "id": "112",
    "duration": "5400",
    "location": "6040 Egtved",
    "witnesses": "3",
    "colors": "rød, blå, grøn, hvid",
    "notes": "Sirius",
    "latitude": "55.5823",
    "longitude": "9.37839",
    "datetime": "1996-12-28 22:00:00"
  },
  {
    "id": "113",
    "duration": "60",
    "location": "5600 Fåborg",
    "witnesses": "3",
    "colors": "NULL",
    "notes": null,
    "latitude": "55.113",
    "longitude": "10.2417",
    "datetime": "1979-06-01 18:00:00"
  },
  {
    "id": "114",
    "duration": "120",
    "location": "8900 Randers",
    "witnesses": "2",
    "colors": "orange",
    "notes": null,
    "latitude": "56.4281",
    "longitude": "9.92272",
    "datetime": "1986-01-02 22:00:00"
  },
  {
    "id": "115",
    "duration": "20",
    "location": "2200 København",
    "witnesses": "3",
    "colors": "sølvgrå",
    "notes": null,
    "latitude": "55.6977",
    "longitude": "12.5464",
    "datetime": "1987-01-01 22:00:00"
  },
  {
    "id": "116",
    "duration": "600",
    "location": "9430 Vadum",
    "witnesses": "1",
    "colors": "violet, hvid, grøn",
    "notes": null,
    "latitude": "57.1156",
    "longitude": "9.85896",
    "datetime": "1988-01-01 01:00:00"
  },
  {
    "id": "117",
    "duration": null,
    "location": "8000 Aarhus",
    "witnesses": "4",
    "colors": "hvid, rød, grøn, sort",
    "notes": "fly",
    "latitude": "56.4469",
    "longitude": "9.40594",
    "datetime": "1988-09-29 20:00:00"
  },
  {
    "id": "118",
    "duration": "4500",
    "location": "8961 Allingåbro",
    "witnesses": "1",
    "colors": "gul, hvid, grøn",
    "notes": null,
    "latitude": "56.4745",
    "longitude": "10.387",
    "datetime": "1990-02-02 21:00:00"
  },
  {
    "id": "119",
    "duration": "45",
    "location": "7100 Vejle",
    "witnesses": "1",
    "colors": "metal",
    "notes": null,
    "latitude": "55.7",
    "longitude": "9.53332",
    "datetime": "1992-01-09 00:00:00"
  },
  {
    "id": "120",
    "duration": "420",
    "location": "8600 Silkeborg",
    "witnesses": "1",
    "colors": "hvid",
    "notes": null,
    "latitude": "56.1695",
    "longitude": "9.54951",
    "datetime": "1992-09-10 19:30:00"
  },
  {
    "id": "121",
    "duration": "300",
    "location": "7451 Sunds",
    "witnesses": "1",
    "colors": "lys, rød",
    "notes": null,
    "latitude": "56.2044",
    "longitude": "9.01481",
    "datetime": "1992-11-19 20:35:00"
  },
  {
    "id": "122",
    "duration": "0",
    "location": "9990 Skagen",
    "witnesses": "1",
    "colors": null,
    "notes": null,
    "latitude": "57.726",
    "longitude": "10.5845",
    "datetime": "1995-07-10 00:00:00"
  },
  {
    "id": "123",
    "duration": "1800",
    "location": "9900 Frederikshavn",
    "witnesses": "1",
    "colors": "gul",
    "notes": null,
    "latitude": "57.4412",
    "longitude": "10.5336",
    "datetime": "1995-12-11 03:30:00"
  },
  {
    "id": "124",
    "duration": "1800",
    "location": "9300 Sæby",
    "witnesses": "1",
    "colors": "rød, blå, hvid",
    "notes": null,
    "latitude": "57.3317",
    "longitude": "10.5175",
    "datetime": "1995-11-13 00:30:00"
  },
  {
    "id": "125",
    "duration": "2",
    "location": "4970 Rødby",
    "witnesses": "1",
    "colors": "grå, lys",
    "notes": null,
    "latitude": "54.6941",
    "longitude": "11.3902",
    "datetime": "1996-11-15 05:50:00"
  },
  {
    "id": "126",
    "duration": "120",
    "location": "9990 Skagen",
    "witnesses": null,
    "colors": "orange",
    "notes": "flyøvelse",
    "latitude": "57.726",
    "longitude": "10.5845",
    "datetime": "1995-11-21 17:15:00"
  },
  {
    "id": "127",
    "duration": "60",
    "location": "9900 Frederikshavn",
    "witnesses": "3",
    "colors": "gul, rød",
    "notes": "flyøvelse",
    "latitude": "57.4412",
    "longitude": "10.5336",
    "datetime": "1995-11-21 17:45:00"
  },
  {
    "id": "128",
    "duration": "60",
    "location": "9990 Skagen",
    "witnesses": null,
    "colors": "blå",
    "notes": "flyøvelse",
    "latitude": "57.726",
    "longitude": "10.5845",
    "datetime": "1995-11-21 18:45:00"
  },
  {
    "id": "129",
    "duration": "3",
    "location": "9900 Frederikshavn",
    "witnesses": "1",
    "colors": "hvid",
    "notes": "meteor",
    "latitude": "57.4412",
    "longitude": "10.5336",
    "datetime": "1995-11-22 21:00:00"
  },
  {
    "id": "130",
    "duration": null,
    "location": "9982 Ålbæk",
    "witnesses": null,
    "colors": "hvid",
    "notes": "meteor",
    "latitude": "57.5938",
    "longitude": "10.4158",
    "datetime": "1995-11-22 04:30:00"
  },
  {
    "id": "131",
    "duration": "600",
    "location": "5620 Glamsbjerg",
    "witnesses": "2",
    "colors": "klar",
    "notes": null,
    "latitude": "55.2686",
    "longitude": "10.1088",
    "datetime": "1996-12-15 22:30:00"
  },
  {
    "id": "132",
    "duration": "60",
    "location": "2800 Lyngby",
    "witnesses": "2",
    "colors": "NULL",
    "notes": null,
    "latitude": "55.7832",
    "longitude": "12.5012",
    "datetime": "1996-01-01 19:30:00"
  },
  {
    "id": "133",
    "duration": "600",
    "location": "5240 Odense NØ",
    "witnesses": "3",
    "colors": "grå, rød, gul",
    "notes": "fly",
    "latitude": "55.4317",
    "longitude": "10.4392",
    "datetime": "1996-06-13 22:13:00"
  },
  {
    "id": "134",
    "duration": "1200",
    "location": "2000 Frederiksberg",
    "witnesses": "3",
    "colors": "rød, gul",
    "notes": null,
    "latitude": "55.678",
    "longitude": "12.5326",
    "datetime": "1997-01-01 00:20:00"
  },
  {
    "id": "135",
    "duration": "900",
    "location": "2200 København N",
    "witnesses": "2",
    "colors": "orange, mørk",
    "notes": null,
    "latitude": "55.7165",
    "longitude": "12.6066",
    "datetime": "1997-01-01 00:30:00"
  },
  {
    "id": "136",
    "duration": null,
    "location": "8400 Ebeltoft",
    "witnesses": "1",
    "colors": "NULL",
    "notes": null,
    "latitude": "56.2009",
    "longitude": "10.6798",
    "datetime": "1997-01-01 11:00:00"
  },
  {
    "id": "137",
    "duration": "60",
    "location": "4450 Jyderup",
    "witnesses": "2",
    "colors": "hvid, gul",
    "notes": "fly",
    "latitude": "55.6605",
    "longitude": "11.4082",
    "datetime": "1997-03-01 21:20:00"
  },
  {
    "id": "138",
    "duration": "3600",
    "location": "3220 Tisvildeleje",
    "witnesses": "1",
    "colors": "gul",
    "notes": null,
    "latitude": "56.0591",
    "longitude": "12.0742",
    "datetime": "1997-04-01 16:15:00"
  },
  {
    "id": "139",
    "duration": "1200",
    "location": "8382 Hinnerup",
    "witnesses": null,
    "colors": "rød, hvid",
    "notes": "fly",
    "latitude": "56.2678",
    "longitude": "10.0689",
    "datetime": "1997-06-01 22:10:00"
  },
  {
    "id": "140",
    "duration": "120",
    "location": "9220 Ålborg Ø",
    "witnesses": "1",
    "colors": "hvid, rød",
    "notes": null,
    "latitude": "57.0306",
    "longitude": "9.98585",
    "datetime": "1997-01-15 22:10:00"
  },
  {
    "id": "141",
    "duration": "300",
    "location": "5270 Odense N",
    "witnesses": "2",
    "colors": "hvid",
    "notes": "projektørlys",
    "latitude": "55.4282",
    "longitude": "10.3573",
    "datetime": "1997-01-17 21:12:00"
  },
  {
    "id": "142",
    "duration": "4",
    "location": "8300 Odder",
    "witnesses": "1",
    "colors": "NULL",
    "notes": null,
    "latitude": "55.9758",
    "longitude": "10.1513",
    "datetime": "1997-01-21 22:45:00"
  },
  {
    "id": "143",
    "duration": null,
    "location": "8900 Randers",
    "witnesses": "1",
    "colors": "hvid, orange",
    "notes": null,
    "latitude": "56.4281",
    "longitude": "9.92272",
    "datetime": "1997-01-22 21:00:00"
  },
  {
    "id": "144",
    "duration": "900",
    "location": "9510 Arden",
    "witnesses": "3",
    "colors": "rød, grøn",
    "notes": null,
    "latitude": "56.7679",
    "longitude": "9.85688",
    "datetime": "1997-01-23 23:00:00"
  },
  {
    "id": "145",
    "duration": "900",
    "location": "9510 Arden",
    "witnesses": "3",
    "colors": "rød, grøn",
    "notes": null,
    "latitude": "56.7679",
    "longitude": "9.85688",
    "datetime": "1997-01-24 23:00:00"
  },
  {
    "id": "146",
    "duration": "360",
    "location": "5000 Odense C",
    "witnesses": "2",
    "colors": "sølv, guld",
    "notes": "projektørlys",
    "latitude": "55.3974",
    "longitude": "10.3778",
    "datetime": "1997-01-02 18:30:00"
  },
  {
    "id": "147",
    "duration": "3",
    "location": "6710 Esbjerg",
    "witnesses": "1",
    "colors": "gul",
    "notes": null,
    "latitude": "55.5102",
    "longitude": "8.3979",
    "datetime": "1997-05-02 06:00:00"
  },
  {
    "id": "148",
    "duration": "240",
    "location": "6682 Hovborg",
    "witnesses": "4",
    "colors": "hvid, gul, grøn",
    "notes": null,
    "latitude": "55.605",
    "longitude": "8.94062",
    "datetime": "1997-07-02 20:30:00"
  },
  {
    "id": "149",
    "duration": "1800",
    "location": "4800 Nykøbing F",
    "witnesses": "1",
    "colors": "grøn, rød",
    "notes": null,
    "latitude": "54.7673",
    "longitude": "11.8768",
    "datetime": "1997-07-02 23:05:00"
  },
  {
    "id": "150",
    "duration": "20",
    "location": "3230 Græsted",
    "witnesses": "1",
    "colors": "mørk, hvid, rød",
    "notes": null,
    "latitude": "56.0632",
    "longitude": "12.2844",
    "datetime": "1997-08-02 00:30:00"
  },
  {
    "id": "151",
    "duration": "600",
    "location": "7100 Vejle",
    "witnesses": "2",
    "colors": "NULL",
    "notes": "fly",
    "latitude": "55.7",
    "longitude": "9.53332",
    "datetime": "1997-02-16 01:40:00"
  },
  {
    "id": "152",
    "duration": "90",
    "location": "6400 Sønderborg",
    "witnesses": "2",
    "colors": "hvid",
    "notes": null,
    "latitude": "54.9089",
    "longitude": "9.7898",
    "datetime": "1997-02-16 12:37:00"
  },
  {
    "id": "153",
    "duration": null,
    "location": "6400 Sønderborg",
    "witnesses": "2",
    "colors": "metal",
    "notes": null,
    "latitude": "54.9089",
    "longitude": "9.7898",
    "datetime": "1997-02-16 12:55:00"
  },
  {
    "id": "154",
    "duration": "3600",
    "location": "2760 Måløv",
    "witnesses": "1",
    "colors": "sølv",
    "notes": "fly",
    "latitude": "55.7493",
    "longitude": "12.3192",
    "datetime": "1997-02-20 12:00:00"
  },
  {
    "id": "155",
    "duration": "120",
    "location": "3650 Ølstykke",
    "witnesses": "4",
    "colors": "hvid, rød",
    "notes": "fly",
    "latitude": "55.7766",
    "longitude": "12.1717",
    "datetime": "1997-02-21 21:30:00"
  },
  {
    "id": "156",
    "duration": "60",
    "location": "4700 Næstved",
    "witnesses": "2",
    "colors": "gulhvid",
    "notes": null,
    "latitude": "55.2328",
    "longitude": "11.7674",
    "datetime": "1997-02-25 19:30:00"
  },
  {
    "id": "157",
    "duration": "6",
    "location": "5240 Odense NØ",
    "witnesses": "2",
    "colors": "hvid",
    "notes": "meteor",
    "latitude": "55.4317",
    "longitude": "10.4392",
    "datetime": "1997-02-26 23:15:00"
  },
  {
    "id": "158",
    "duration": "10",
    "location": "2630 Tåstrup",
    "witnesses": "3",
    "colors": "rød",
    "notes": "fly",
    "latitude": "55.6519",
    "longitude": "12.3176",
    "datetime": "1997-02-27 20:15:00"
  },
  {
    "id": "159",
    "duration": "900",
    "location": "8420 Knebel",
    "witnesses": "1",
    "colors": "hvid",
    "notes": "Hale-Bopp",
    "latitude": "56.1785",
    "longitude": "10.5079",
    "datetime": "1997-04-03 02:30:00"
  },
  {
    "id": "160",
    "duration": "7200",
    "location": "6950 Ringkøbing",
    "witnesses": "4",
    "colors": "hvid",
    "notes": "Hale-Bopp",
    "latitude": "56.0904",
    "longitude": "8.25427",
    "datetime": "1997-04-03 03:50:00"
  },
  {
    "id": "161",
    "duration": "10",
    "location": "5970 Ærøskøbing",
    "witnesses": "2",
    "colors": "hvid",
    "notes": null,
    "latitude": "54.8897",
    "longitude": "10.4112",
    "datetime": "1997-04-03 19:10:00"
  },
  {
    "id": "162",
    "duration": "300",
    "location": "8330 Trige",
    "witnesses": "1",
    "colors": "klar",
    "notes": null,
    "latitude": "56.2541",
    "longitude": "10.1454",
    "datetime": "1997-04-03 22:15:00"
  },
  {
    "id": "163",
    "duration": "20",
    "location": "7990 Øster-Assels",
    "witnesses": "2",
    "colors": "gul",
    "notes": null,
    "latitude": "56.7102",
    "longitude": "8.72548",
    "datetime": "1997-06-03 20:18:00"
  },
  {
    "id": "164",
    "duration": "5",
    "location": "5230 Odense SØ",
    "witnesses": "1",
    "colors": "beige, brun",
    "notes": null,
    "latitude": "55.3801",
    "longitude": "10.3968",
    "datetime": "1997-06-03 20:40:00"
  },
  {
    "id": "165",
    "duration": "1200",
    "location": "8420 Knebel",
    "witnesses": "1",
    "colors": "hvid, blå",
    "notes": "satellit\/meteor",
    "latitude": "56.1785",
    "longitude": "10.5079",
    "datetime": "1997-06-03 20:55:00"
  },
  {
    "id": "166",
    "duration": null,
    "location": "7800 Skive",
    "witnesses": "1",
    "colors": "gul, hvid",
    "notes": null,
    "latitude": "56.5659",
    "longitude": "9.02927",
    "datetime": "1997-06-03 21:55:00"
  },
  {
    "id": "167",
    "duration": "300",
    "location": "8900 Randers",
    "witnesses": "2",
    "colors": "orange",
    "notes": null,
    "latitude": "56.4654",
    "longitude": "10.0333",
    "datetime": "1997-07-03 04:50:00"
  },
  {
    "id": "168",
    "duration": null,
    "location": "4173 Fjenneslev",
    "witnesses": "2",
    "colors": "NULL",
    "notes": "fly",
    "latitude": "55.4395",
    "longitude": "11.67",
    "datetime": "1997-08-03 11:50:00"
  },
  {
    "id": "169",
    "duration": "20",
    "location": "2700 Brønshøj",
    "witnesses": "2",
    "colors": "hvid",
    "notes": "satellit",
    "latitude": "55.7041",
    "longitude": "12.4985",
    "datetime": "1997-03-15 21:02:00"
  },
  {
    "id": "170",
    "duration": null,
    "location": "9850 Hirtshals",
    "witnesses": "2",
    "colors": "blågrøn, hvid",
    "notes": "meteor",
    "latitude": "57.5908",
    "longitude": "9.96497",
    "datetime": "1997-03-15 21:57:00"
  },
  {
    "id": "171",
    "duration": "60",
    "location": "9300 Sæby",
    "witnesses": "2",
    "colors": "hvid",
    "notes": null,
    "latitude": "57.3317",
    "longitude": "10.5175",
    "datetime": "1997-03-17 19:03:00"
  },
  {
    "id": "172",
    "duration": "120",
    "location": "2500 Valby",
    "witnesses": "3",
    "colors": "klar",
    "notes": null,
    "latitude": "55.6618",
    "longitude": "12.517",
    "datetime": "1997-03-17 20:20:00"
  },
  {
    "id": "173",
    "duration": "45",
    "location": "5000 Odense",
    "witnesses": "1",
    "colors": "rød",
    "notes": null,
    "latitude": "55.3997",
    "longitude": "10.3852",
    "datetime": "1997-03-18 06:40:00"
  },
  {
    "id": "174",
    "duration": "240",
    "location": "8560 Kollund",
    "witnesses": "2",
    "colors": "rød, hvid",
    "notes": null,
    "latitude": "56.3581",
    "longitude": "10.5848",
    "datetime": "1997-03-18 20:00:00"
  },
  {
    "id": "175",
    "duration": "300",
    "location": "8581 Nimtofte",
    "witnesses": "2",
    "colors": "rød",
    "notes": null,
    "latitude": "56.4177",
    "longitude": "10.5586",
    "datetime": "1997-03-19 20:05:00"
  },
  {
    "id": "176",
    "duration": "4",
    "location": "1050 København",
    "witnesses": "1",
    "colors": "hvid",
    "notes": null,
    "latitude": "55.6753",
    "longitude": "12.5697",
    "datetime": "1997-03-21 23:36:00"
  },
  {
    "id": "177",
    "duration": "180",
    "location": "6880 Tarm",
    "witnesses": "3",
    "colors": "hvid",
    "notes": null,
    "latitude": "55.9065",
    "longitude": "8.51921",
    "datetime": "1997-03-26 21:55:00"
  },
  {
    "id": "178",
    "duration": "10",
    "location": "4600 Køge",
    "witnesses": "5",
    "colors": "hvid",
    "notes": null,
    "latitude": "55.4565",
    "longitude": "12.1819",
    "datetime": "1997-03-28 21:32:00"
  },
  {
    "id": "179",
    "duration": "60",
    "location": "4900 Nakskov",
    "witnesses": "2",
    "colors": "blå",
    "notes": null,
    "latitude": "54.8305",
    "longitude": "11.1494",
    "datetime": "1997-03-28 22:17:00"
  },
  {
    "id": "180",
    "duration": "600",
    "location": "4200 Slagelse",
    "witnesses": "2",
    "colors": "lysegrøn",
    "notes": null,
    "latitude": "55.4061",
    "longitude": "11.3525",
    "datetime": "1997-03-29 21:30:00"
  },
  {
    "id": "181",
    "duration": "900",
    "location": "7100 Fredericia",
    "witnesses": "1",
    "colors": "rød, gul",
    "notes": null,
    "latitude": "55.5649",
    "longitude": "9.74371",
    "datetime": "0000-00-00 00:00:00"
  },
  {
    "id": "182",
    "duration": "30",
    "location": "2970 Hørsholm",
    "witnesses": "2",
    "colors": "sølv",
    "notes": null,
    "latitude": "55.8833",
    "longitude": "12.5",
    "datetime": "1973-06-17 17:35:00"
  },
  {
    "id": "183",
    "duration": "60",
    "location": "4771 Kalvehave",
    "witnesses": "1",
    "colors": "sølv",
    "notes": null,
    "latitude": "55.0022",
    "longitude": "12.1474",
    "datetime": "1974-01-03 19:30:00"
  },
  {
    "id": "185",
    "duration": "7",
    "location": "6857 Blåvand",
    "witnesses": "1",
    "colors": "lys, blå",
    "notes": null,
    "latitude": "55.554",
    "longitude": "8.1373",
    "datetime": "1982-01-01 02:00:00"
  },
  {
    "id": "186",
    "duration": "1500",
    "location": "2800 Lyngby",
    "witnesses": "2",
    "colors": "NULL",
    "notes": null,
    "latitude": "55.7832",
    "longitude": "12.5012",
    "datetime": "1991-09-04 22:00:00"
  },
  {
    "id": "187",
    "duration": "600",
    "location": "9220 Aalborg Ø",
    "witnesses": "2",
    "colors": "NULL",
    "notes": null,
    "latitude": "57.0306",
    "longitude": "9.98585",
    "datetime": "1995-09-06 00:10:00"
  },
  {
    "id": "188",
    "duration": "300",
    "location": "8660 Skanderborg",
    "witnesses": "1",
    "colors": "hvid",
    "notes": null,
    "latitude": "56.0352",
    "longitude": "9.93179",
    "datetime": "1995-12-12 20:15:00"
  },
  {
    "id": "189",
    "duration": "5",
    "location": "8700 Horsens",
    "witnesses": "1",
    "colors": "rød",
    "notes": "satellit",
    "latitude": "55.8612",
    "longitude": "9.84448",
    "datetime": "1996-01-09 07:00:00"
  },
  {
    "id": "190",
    "duration": "1800",
    "location": "6261 Bredebro",
    "witnesses": "2",
    "colors": "orangerød",
    "notes": "fly",
    "latitude": "55.0556",
    "longitude": "8.82707",
    "datetime": "1996-09-30 07:30:00"
  },
  {
    "id": "191",
    "duration": null,
    "location": "6261 Bredebro",
    "witnesses": "2",
    "colors": "orangerød",
    "notes": "fly",
    "latitude": "55.0556",
    "longitude": "8.82707",
    "datetime": "1996-02-10 21:00:00"
  },
  {
    "id": "192",
    "duration": "300",
    "location": "6760 Ribe",
    "witnesses": "1",
    "colors": "orange",
    "notes": "Månen",
    "latitude": "55.3284",
    "longitude": "8.76478",
    "datetime": "1996-12-23 06:30:00"
  },
  {
    "id": "193",
    "duration": "8",
    "location": "2920 Charlottenlund",
    "witnesses": "1",
    "colors": "hvid, gul",
    "notes": null,
    "latitude": "55.7553",
    "longitude": "12.5671",
    "datetime": "1997-02-20 23:00:00"
  },
  {
    "id": "194",
    "duration": "3600",
    "location": "7260 Sdr. Omme",
    "witnesses": "2",
    "colors": "blå, rød",
    "notes": "stjerne",
    "latitude": "55.838",
    "longitude": "8.89502",
    "datetime": "1997-07-03 22:30:00"
  },
  {
    "id": "195",
    "duration": "30",
    "location": "5000 Odense",
    "witnesses": "1",
    "colors": "NULL",
    "notes": "projektør",
    "latitude": "55.3997",
    "longitude": "10.3852",
    "datetime": "1997-03-15 21:45:00"
  },
  {
    "id": "196",
    "duration": "120",
    "location": "3050 Humlebæk",
    "witnesses": "1",
    "colors": "hvid, grøn, rød",
    "notes": null,
    "latitude": "55.9619",
    "longitude": "12.5305",
    "datetime": "1997-03-20 23:15:00"
  },
  {
    "id": "197",
    "duration": "300",
    "location": "9220 Ålborg Ø",
    "witnesses": "1",
    "colors": "sort",
    "notes": null,
    "latitude": "57.0306",
    "longitude": "9.98585",
    "datetime": "1997-03-24 09:43:00"
  },
  {
    "id": "198",
    "duration": "10",
    "location": "8783 Hornsyld",
    "witnesses": "1",
    "colors": "gul, orange",
    "notes": null,
    "latitude": "55.7568",
    "longitude": "9.85638",
    "datetime": "1997-03-25 23:42:00"
  },
  {
    "id": "199",
    "duration": "5",
    "location": "2730 Herlev",
    "witnesses": "1",
    "colors": "gul",
    "notes": "meteor?",
    "latitude": "55.7248",
    "longitude": "12.4377",
    "datetime": "1997-03-28 23:45:00"
  },
  {
    "id": "200",
    "duration": "15",
    "location": "8300 Odder",
    "witnesses": "1",
    "colors": "rød",
    "notes": null,
    "latitude": "55.9758",
    "longitude": "10.1513",
    "datetime": "1997-03-29 21:00:00"
  },
  {
    "id": "201",
    "duration": "30",
    "location": "2800 Lyngby",
    "witnesses": "2",
    "colors": "hvid",
    "notes": null,
    "latitude": "55.7832",
    "longitude": "12.5012",
    "datetime": "1997-03-29 23:23:00"
  },
  {
    "id": "202",
    "duration": "1800",
    "location": "6800 Varde",
    "witnesses": "1",
    "colors": "rød, hvid",
    "notes": null,
    "latitude": "55.6177",
    "longitude": "8.48118",
    "datetime": "1997-03-04 22:05:00"
  },
  {
    "id": "203",
    "duration": "25",
    "location": "9000 Ålborg",
    "witnesses": "1",
    "colors": "hvid",
    "notes": null,
    "latitude": "57.0463",
    "longitude": "9.92153",
    "datetime": "1997-05-04 00:42:00"
  },
  {
    "id": "204",
    "duration": "30",
    "location": "6400 Sønderborg",
    "witnesses": "1",
    "colors": "gul",
    "notes": null,
    "latitude": "54.9089",
    "longitude": "9.7898",
    "datetime": "1997-06-04 22:08:00"
  },
  {
    "id": "205",
    "duration": "300",
    "location": "5953 Tranekær",
    "witnesses": "2",
    "colors": "rød, hvid",
    "notes": null,
    "latitude": "54.9974",
    "longitude": "10.8471",
    "datetime": "1997-06-04 23:30:00"
  },
  {
    "id": "206",
    "duration": "180",
    "location": "4683 Rønnede",
    "witnesses": "2",
    "colors": "lys, rød",
    "notes": null,
    "latitude": "55.2563",
    "longitude": "12.0285",
    "datetime": "1997-07-04 00:30:00"
  },
  {
    "id": "207",
    "duration": "30",
    "location": "7000 Fredericia",
    "witnesses": "2",
    "colors": "hvid",
    "notes": null,
    "latitude": "55.5649",
    "longitude": "9.74365",
    "datetime": "1997-07-04 22:07:00"
  },
  {
    "id": "208",
    "duration": "90",
    "location": "2700 Brønshøj",
    "witnesses": "1",
    "colors": "rødgul",
    "notes": "fly\/satellit",
    "latitude": "55.7041",
    "longitude": "12.4985",
    "datetime": "1997-11-04 21:00:00"
  },
  {
    "id": "209",
    "duration": "90",
    "location": "5000 Odense",
    "witnesses": "2",
    "colors": "hvid",
    "notes": null,
    "latitude": "55.3964",
    "longitude": "10.3933",
    "datetime": "1997-11-04 21:40:00"
  },
  {
    "id": "210",
    "duration": "0",
    "location": "3050 Humlebæk",
    "witnesses": null,
    "colors": "NULL",
    "notes": null,
    "latitude": "55.9619",
    "longitude": "12.5305",
    "datetime": "1997-04-14 21:20:00"
  },
  {
    "id": "211",
    "duration": null,
    "location": "2800 Lyngby",
    "witnesses": null,
    "colors": "NULL",
    "notes": null,
    "latitude": "55.7832",
    "longitude": "12.5012",
    "datetime": "1997-04-14 22:15:00"
  },
  {
    "id": "212",
    "duration": null,
    "location": "2670 Greve",
    "witnesses": null,
    "colors": "NULL",
    "notes": null,
    "latitude": "55.5917",
    "longitude": "12.3053",
    "datetime": "1997-04-16 21:30:00"
  },
  {
    "id": "213",
    "duration": null,
    "location": "3000 Helsingør",
    "witnesses": null,
    "colors": "NULL",
    "notes": null,
    "latitude": "56.0349",
    "longitude": "12.613",
    "datetime": "1997-04-17 20:45:00"
  },
  {
    "id": "214",
    "duration": "120",
    "location": "5500 Middelfart",
    "witnesses": "2",
    "colors": "rød",
    "notes": null,
    "latitude": "55.5033",
    "longitude": "9.74946",
    "datetime": "1997-04-18 22:00:00"
  },
  {
    "id": "215",
    "duration": "300",
    "location": "9541 Suldrup",
    "witnesses": "2",
    "colors": "hvid, rød",
    "notes": null,
    "latitude": "56.8484",
    "longitude": "9.70063",
    "datetime": "1997-04-18 22:10:00"
  },
  {
    "id": "216",
    "duration": "900",
    "location": "3000 Helsingør",
    "witnesses": "2",
    "colors": "hvid",
    "notes": "fly",
    "latitude": "56.0349",
    "longitude": "12.613",
    "datetime": "1997-04-20 21:30:00"
  },
  {
    "id": "217",
    "duration": "300",
    "location": "3000 Helsingør",
    "witnesses": "2",
    "colors": "NULL",
    "notes": null,
    "latitude": "56.0349",
    "longitude": "12.613",
    "datetime": "1997-04-21 21:36:00"
  },
  {
    "id": "218",
    "duration": "30",
    "location": "4960 Holeby",
    "witnesses": "3",
    "colors": "gul, orange, rød",
    "notes": null,
    "latitude": "54.7111",
    "longitude": "11.4629",
    "datetime": "1997-04-23 22:30:00"
  },
  {
    "id": "219",
    "duration": "900",
    "location": "2950 Vedbæk",
    "witnesses": "4",
    "colors": "orange",
    "notes": "Månen",
    "latitude": "55.8541",
    "longitude": "12.5653",
    "datetime": "1997-04-27 00:30:00"
  },
  {
    "id": "220",
    "duration": null,
    "location": "9000 Aalborg",
    "witnesses": "1",
    "colors": "NULL",
    "notes": null,
    "latitude": "57.0463",
    "longitude": "9.92153",
    "datetime": "1997-04-30 23:30:00"
  },
  {
    "id": "221",
    "duration": "300",
    "location": "3230 Græsted",
    "witnesses": "2",
    "colors": "klar",
    "notes": null,
    "latitude": "56.0632",
    "longitude": "12.2844",
    "datetime": "1997-02-05 21:50:00"
  },
  {
    "id": "222",
    "duration": "180",
    "location": "2000 Frederiksberg",
    "witnesses": "2",
    "colors": "klar",
    "notes": null,
    "latitude": "55.678",
    "longitude": "12.5326",
    "datetime": "1997-02-05 22:05:00"
  },
  {
    "id": "223",
    "duration": "3600",
    "location": "2400 København NV",
    "witnesses": "2",
    "colors": "gul",
    "notes": "regnbue",
    "latitude": "55.7089",
    "longitude": "12.53",
    "datetime": "1997-09-05 00:00:00"
  },
  {
    "id": "224",
    "duration": "120",
    "location": "4180 Sorø",
    "witnesses": "2",
    "colors": "hvid",
    "notes": null,
    "latitude": "55.4366",
    "longitude": "11.5629",
    "datetime": "1997-09-05 04:05:00"
  },
  {
    "id": "225",
    "duration": "60",
    "location": "3100 Hornbæk",
    "witnesses": "1",
    "colors": "NULL",
    "notes": null,
    "latitude": "56.0879",
    "longitude": "12.4588",
    "datetime": "1997-11-05 22:45:00"
  },
  {
    "id": "226",
    "duration": "30",
    "location": "4230 Skelskør",
    "witnesses": "1",
    "colors": "rød",
    "notes": null,
    "latitude": "55.2521",
    "longitude": "11.2942",
    "datetime": "1997-05-13 00:30:00"
  },
  {
    "id": "227",
    "duration": "10",
    "location": "2650 hvidovre",
    "witnesses": "1",
    "colors": "hvid",
    "notes": null,
    "latitude": "55.6442",
    "longitude": "12.4772",
    "datetime": "1997-05-13 23:15:00"
  },
  {
    "id": "228",
    "duration": null,
    "location": "2950 Vedbæk",
    "witnesses": "1",
    "colors": "NULL",
    "notes": null,
    "latitude": "55.8541",
    "longitude": "12.5653",
    "datetime": "1997-05-18 01:30:00"
  },
  {
    "id": "229",
    "duration": "600",
    "location": "2730 Herlev",
    "witnesses": "2",
    "colors": "hvid",
    "notes": "laserlys",
    "latitude": "55.7248",
    "longitude": "12.4377",
    "datetime": "1997-05-19 22:30:00"
  },
  {
    "id": "230",
    "duration": "300",
    "location": "3500 Værløse",
    "witnesses": "1",
    "colors": "grøn, rød, hvid",
    "notes": null,
    "latitude": "55.7833",
    "longitude": "12.3833",
    "datetime": "1997-05-20 22:00:00"
  },
  {
    "id": "231",
    "duration": "300",
    "location": "2791 Dragør",
    "witnesses": "1",
    "colors": "gul",
    "notes": null,
    "latitude": "55.5925",
    "longitude": "12.672",
    "datetime": "1997-05-21 04:15:00"
  },
  {
    "id": "232",
    "duration": "900",
    "location": "3300 Frederiksværk",
    "witnesses": "1",
    "colors": "hvid, gul",
    "notes": null,
    "latitude": "55.9737",
    "longitude": "12.0211",
    "datetime": "1997-05-23 22:00:00"
  },
  {
    "id": "233",
    "duration": "3600",
    "location": "2830 Virum",
    "witnesses": "2",
    "colors": "NULL",
    "notes": "projektørlys",
    "latitude": "55.794",
    "longitude": "12.4695",
    "datetime": "1997-05-25 22:45:00"
  },
  {
    "id": "234",
    "duration": null,
    "location": "2000 Frederiksberg",
    "witnesses": "1",
    "colors": "NULL",
    "notes": "projektørlys",
    "latitude": "55.678",
    "longitude": "12.5326",
    "datetime": "1997-05-25 23:00:00"
  },
  {
    "id": "235",
    "duration": "900",
    "location": "2610 rødovre",
    "witnesses": "2",
    "colors": "hvid",
    "notes": "projektørlys",
    "latitude": "55.6813",
    "longitude": "12.4547",
    "datetime": "1997-05-25 23:00:00"
  },
  {
    "id": "236",
    "duration": "2400",
    "location": "2880 Bagsværd",
    "witnesses": "3",
    "colors": "hvid",
    "notes": "projektørlys",
    "latitude": "55.7584",
    "longitude": "12.4573",
    "datetime": "1997-05-25 23:00:00"
  },
  {
    "id": "237",
    "duration": "1800",
    "location": "2700 Brønshøj",
    "witnesses": "2",
    "colors": "hvid",
    "notes": "projektørlys",
    "latitude": "55.7041",
    "longitude": "12.4985",
    "datetime": "1997-05-25 23:15:00"
  },
  {
    "id": "238",
    "duration": "2100",
    "location": "2800 Lyngby",
    "witnesses": "3",
    "colors": null,
    "notes": "projektørlys",
    "latitude": "55.7832",
    "longitude": "12.5012",
    "datetime": "1997-05-25 23:15:00"
  },
  {
    "id": "239",
    "duration": "900",
    "location": "2610 rødovre",
    "witnesses": "2",
    "colors": "hvid",
    "notes": "projektørlys",
    "latitude": "55.6813",
    "longitude": "12.4547",
    "datetime": "1997-05-25 23:30:00"
  },
  {
    "id": "240",
    "duration": "1800",
    "location": "2830 Virum",
    "witnesses": "2",
    "colors": "NULL",
    "notes": "projektørlys",
    "latitude": "55.794",
    "longitude": "12.4695",
    "datetime": "1997-05-25 23:30:00"
  },
  {
    "id": "241",
    "duration": "1200",
    "location": "2600 Glostrup",
    "witnesses": "3",
    "colors": "hvid",
    "notes": "projektørlys",
    "latitude": "55.6692",
    "longitude": "12.396",
    "datetime": "1997-05-25 23:35:00"
  },
  {
    "id": "242",
    "duration": "300",
    "location": "2750 Ballerup",
    "witnesses": "3",
    "colors": "hvid",
    "notes": "projektørlys",
    "latitude": "55.7304",
    "longitude": "12.3612",
    "datetime": "1997-05-25 23:30:00"
  },
  {
    "id": "243",
    "duration": "20",
    "location": "6600 Vejen",
    "witnesses": "2",
    "colors": "hvid",
    "notes": null,
    "latitude": "55.4743",
    "longitude": "9.13179",
    "datetime": "1997-05-26 00:20:00"
  },
  {
    "id": "244",
    "duration": "2700",
    "location": "4672 Klippinge",
    "witnesses": "2",
    "colors": "gul",
    "notes": "satellitter",
    "latitude": "55.3487",
    "longitude": "12.3268",
    "datetime": "1997-05-28 00:00:00"
  },
  {
    "id": "245",
    "duration": "240",
    "location": "7800 Nykøbing",
    "witnesses": "1",
    "colors": "hvid",
    "notes": null,
    "latitude": "55.9217",
    "longitude": "11.6733",
    "datetime": "1997-01-06 01:52:00"
  },
  {
    "id": "246",
    "duration": "10",
    "location": "5250 Odense SV",
    "witnesses": "2",
    "colors": "hvid",
    "notes": null,
    "latitude": "55.375",
    "longitude": "10.3537",
    "datetime": "1997-01-06 22:45:00"
  },
  {
    "id": "247",
    "duration": "360",
    "location": "5000 Odense C",
    "witnesses": "3",
    "colors": "hvid",
    "notes": null,
    "latitude": "55.3974",
    "longitude": "10.3778",
    "datetime": "1997-01-06 22:50:00"
  },
  {
    "id": "248",
    "duration": "300",
    "location": "9900 Skagen",
    "witnesses": "1",
    "colors": "gul",
    "notes": null,
    "latitude": "57.5007",
    "longitude": "10.459",
    "datetime": "1997-01-06 23:00:00"
  },
  {
    "id": "249",
    "duration": "300",
    "location": "7700 Thisted",
    "witnesses": "2",
    "colors": "gul",
    "notes": null,
    "latitude": "56.9562",
    "longitude": "8.68487",
    "datetime": "1997-02-06 02:10:00"
  },
  {
    "id": "250",
    "duration": null,
    "location": "9982 Aalbæk",
    "witnesses": "2",
    "colors": "NULL",
    "notes": null,
    "latitude": "57.5938",
    "longitude": "10.4158",
    "datetime": "1997-02-06 02:45:00"
  },
  {
    "id": "251",
    "duration": "300",
    "location": "9260 Gistrup",
    "witnesses": "2",
    "colors": "gul",
    "notes": null,
    "latitude": "56.9944",
    "longitude": "9.99454",
    "datetime": "1997-03-06 01:10:00"
  },
  {
    "id": "252",
    "duration": "600",
    "location": "8200 Aarhus N",
    "witnesses": "2",
    "colors": "hvid",
    "notes": null,
    "latitude": "56.16",
    "longitude": "10.2214",
    "datetime": "1997-03-06 23:38:00"
  },
  {
    "id": "253",
    "duration": null,
    "location": "8240 Risskov",
    "witnesses": "1",
    "colors": "sølv, gul",
    "notes": null,
    "latitude": "56.1981",
    "longitude": "10.23",
    "datetime": "1997-06-06 23:30:00"
  },
  {
    "id": "254",
    "duration": "300",
    "location": "2610 Rødovre",
    "witnesses": "1",
    "colors": "hvid",
    "notes": null,
    "latitude": "55.6813",
    "longitude": "12.4547",
    "datetime": "1997-07-06 23:35:00"
  },
  {
    "id": "255",
    "duration": "120",
    "location": "5792 Aarslev",
    "witnesses": null,
    "colors": "hvid",
    "notes": null,
    "latitude": "55.3053",
    "longitude": "10.4712",
    "datetime": "1997-08-06 22:28:00"
  },
  {
    "id": "256",
    "duration": "60",
    "location": "6070 Christianfeld",
    "witnesses": "2",
    "colors": "hvid, sort",
    "notes": null,
    "latitude": "55.359",
    "longitude": "9.49051",
    "datetime": "1997-06-13 15:15:00"
  },
  {
    "id": "257",
    "duration": "3600",
    "location": "9400 Nørresundby",
    "witnesses": "4",
    "colors": "hvid",
    "notes": "Jupiter",
    "latitude": "57.0607",
    "longitude": "9.92413",
    "datetime": "1997-06-20 01:32:00"
  },
  {
    "id": "258",
    "duration": "1200",
    "location": "8464 Galten",
    "witnesses": "1",
    "colors": "grå, hvid",
    "notes": null,
    "latitude": "56.1534",
    "longitude": "9.91769",
    "datetime": "1997-06-26 09:00:00"
  },
  {
    "id": "259",
    "duration": "30",
    "location": "7080 Børkop",
    "witnesses": "1",
    "colors": "blå",
    "notes": null,
    "latitude": "55.641",
    "longitude": "9.64921",
    "datetime": "0000-00-00 00:00:00"
  },
  {
    "id": "260",
    "duration": "180",
    "location": "4220 Korsør",
    "witnesses": "2",
    "colors": "sort",
    "notes": null,
    "latitude": "55.3415",
    "longitude": "11.1367",
    "datetime": "0000-00-00 00:00:00"
  },
  {
    "id": "261",
    "duration": "900",
    "location": "6100 Haderslev",
    "witnesses": "1",
    "colors": "NULL",
    "notes": null,
    "latitude": "55.2501",
    "longitude": "9.49979",
    "datetime": "1982-01-01 22:00:00"
  },
  {
    "id": "262",
    "duration": "40",
    "location": "4220 Korsør",
    "witnesses": "1",
    "colors": "NULL",
    "notes": null,
    "latitude": "55.3415",
    "longitude": "11.1367",
    "datetime": "1986-01-03 15:00:00"
  },
  {
    "id": "263",
    "duration": "30",
    "location": "9400 Nørresundby",
    "witnesses": "1",
    "colors": "mørk grå",
    "notes": null,
    "latitude": "57.0607",
    "longitude": "9.92413",
    "datetime": "1996-03-06 00:12:00"
  },
  {
    "id": "264",
    "duration": "120",
    "location": "9000 Aalborg",
    "witnesses": "1",
    "colors": "gul, hvid",
    "notes": "satellit",
    "latitude": "57.0463",
    "longitude": "9.92153",
    "datetime": "1996-10-08 00:30:00"
  },
  {
    "id": "265",
    "duration": "20400",
    "location": "6200 Aabenraa",
    "witnesses": "3",
    "colors": "sort, hvid",
    "notes": "projektørlys?",
    "latitude": "55.0446",
    "longitude": "9.42097",
    "datetime": "1996-11-16 17:30:00"
  },
  {
    "id": "266",
    "duration": "2400",
    "location": "2800 Lyngby",
    "witnesses": "2",
    "colors": "hvid",
    "notes": "projektørlys",
    "latitude": "55.7832",
    "longitude": "12.5012",
    "datetime": "1997-08-03 03:20:00"
  },
  {
    "id": "267",
    "duration": "11700",
    "location": "2791 Dragør",
    "witnesses": "2",
    "colors": "hvid",
    "notes": "projektørlys",
    "latitude": "55.5925",
    "longitude": "12.672",
    "datetime": "1997-09-03 02:45:00"
  },
  {
    "id": "268",
    "duration": "1800",
    "location": "2650 hvidovre",
    "witnesses": "2",
    "colors": "grå, hvid",
    "notes": "projektørlys",
    "latitude": "55.6442",
    "longitude": "12.4772",
    "datetime": "1997-09-03 03:35:00"
  },
  {
    "id": "269",
    "duration": "1800",
    "location": "4600 Køge",
    "witnesses": "1",
    "colors": "hvid",
    "notes": null,
    "latitude": "55.4565",
    "longitude": "12.1819",
    "datetime": "1997-08-06 02:00:00"
  },
  {
    "id": "270",
    "duration": "900",
    "location": "7600 Struer",
    "witnesses": "2",
    "colors": "NULL",
    "notes": null,
    "latitude": "56.4867",
    "longitude": "8.59514",
    "datetime": "1997-04-07 01:45:00"
  },
  {
    "id": "271",
    "duration": "900",
    "location": "2100 København",
    "witnesses": null,
    "colors": "NULL",
    "notes": null,
    "latitude": "55.7024",
    "longitude": "12.5792",
    "datetime": "1997-07-07 19:45:00"
  },
  {
    "id": "272",
    "duration": "9900",
    "location": "4230 Skælskør",
    "witnesses": "2",
    "colors": "grå",
    "notes": null,
    "latitude": "55.2521",
    "longitude": "11.2942",
    "datetime": "1997-07-07 22:45:00"
  },
  {
    "id": "273",
    "duration": "1200",
    "location": "2600 Glostrup",
    "witnesses": "4",
    "colors": "NULL",
    "notes": null,
    "latitude": "55.6692",
    "longitude": "12.396",
    "datetime": "1997-07-07 23:30:00"
  },
  {
    "id": "274",
    "duration": "9000",
    "location": "4920 Søllested",
    "witnesses": "2",
    "colors": "hvid",
    "notes": "Jupiter",
    "latitude": "54.8124",
    "longitude": "11.271",
    "datetime": "1997-08-07 00:00:00"
  },
  {
    "id": "275",
    "duration": null,
    "location": "2200 København",
    "witnesses": "1",
    "colors": "hvid",
    "notes": "satellit",
    "latitude": "55.6977",
    "longitude": "12.5464",
    "datetime": "1997-08-07 01:00:00"
  },
  {
    "id": "276",
    "duration": "10800",
    "location": "9690 Fjerritslev",
    "witnesses": null,
    "colors": "NULL",
    "notes": "Jupiter",
    "latitude": "57.0888",
    "longitude": "9.2731",
    "datetime": "1997-07-17 23:20:00"
  },
  {
    "id": "277",
    "duration": "1800",
    "location": "8240 Risskov",
    "witnesses": "1",
    "colors": null,
    "notes": null,
    "latitude": "56.1981",
    "longitude": "10.23",
    "datetime": "1997-09-07 01:56:00"
  },
  {
    "id": "278",
    "duration": "600",
    "location": "6840 Ølgod",
    "witnesses": "2",
    "colors": "gul",
    "notes": null,
    "latitude": "55.7766",
    "longitude": "12.5725",
    "datetime": "1997-10-07 23:50:00"
  },
  {
    "id": "279",
    "duration": "300",
    "location": "3650 Ølstrykke",
    "witnesses": "1",
    "colors": "orange, hvid",
    "notes": null,
    "latitude": "55.7766",
    "longitude": "12.1717",
    "datetime": "1997-11-07 01:30:00"
  },
  {
    "id": "280",
    "duration": "35",
    "location": "8700 Horsens",
    "witnesses": "1",
    "colors": "hvid, rød",
    "notes": null,
    "latitude": "55.8612",
    "longitude": "9.84448",
    "datetime": "1997-07-14 02:19:00"
  },
  {
    "id": "281",
    "duration": null,
    "location": "5750 Ringe",
    "witnesses": "1",
    "colors": "blå",
    "notes": null,
    "latitude": "55.2351",
    "longitude": "10.4819",
    "datetime": "1997-07-17 02:15:00"
  },
  {
    "id": "282",
    "duration": "3600",
    "location": "9000 Aalborg",
    "witnesses": "4",
    "colors": "rød, gul",
    "notes": "projektørlys",
    "latitude": "57.0463",
    "longitude": "9.92153",
    "datetime": "1997-07-23 00:15:00"
  },
  {
    "id": "283",
    "duration": "600",
    "location": "9220 Aalborg",
    "witnesses": "1",
    "colors": "hvid",
    "notes": "projektørlys",
    "latitude": "57.0306",
    "longitude": "9.98585",
    "datetime": "1997-07-24 00:00:00"
  },
  {
    "id": "284",
    "duration": "30",
    "location": "5792 Nørre Søby",
    "witnesses": "1",
    "colors": "hvid",
    "notes": null,
    "latitude": "56.5098",
    "longitude": "9.17115",
    "datetime": "1997-07-25 02:15:00"
  },
  {
    "id": "285",
    "duration": "7200",
    "location": "2700 Brønshøj",
    "witnesses": "11",
    "colors": "hvid",
    "notes": "satellit",
    "latitude": "55.7041",
    "longitude": "12.4985",
    "datetime": "1997-07-26 01:11:00"
  },
  {
    "id": "286",
    "duration": "600",
    "location": "4000 Roskilde",
    "witnesses": "1",
    "colors": "rød, gul",
    "notes": null,
    "latitude": "55.6433",
    "longitude": "12.0819",
    "datetime": "1997-07-27 04:15:00"
  },
  {
    "id": "287",
    "duration": "120",
    "location": "4420 Regstrup",
    "witnesses": "2",
    "colors": "rød",
    "notes": "flyvemaskine",
    "latitude": "55.6736",
    "longitude": "11.6185",
    "datetime": "1997-07-28 22:36:00"
  },
  {
    "id": "288",
    "duration": "900",
    "location": "4400 Kalundborg",
    "witnesses": "2",
    "colors": "rød, grøn",
    "notes": "Capella (stjerne)",
    "latitude": "55.6834",
    "longitude": "11.0994",
    "datetime": "1997-07-28 22:40:00"
  },
  {
    "id": "289",
    "duration": "3",
    "location": "2620 Albertslund",
    "witnesses": "2",
    "colors": "hvid",
    "notes": "meteor",
    "latitude": "55.6586",
    "longitude": "12.3563",
    "datetime": "1997-07-28 23:15:00"
  },
  {
    "id": "290",
    "duration": "1800",
    "location": "8761 Tranebjerg",
    "witnesses": "2",
    "colors": "blå, gul",
    "notes": "Jupiter",
    "latitude": "55.8326",
    "longitude": "10.5894",
    "datetime": "1997-07-28 23:30:00"
  },
  {
    "id": "291",
    "duration": "6300",
    "location": "3140 Aalsgaarde",
    "witnesses": "2",
    "colors": "hvid",
    "notes": null,
    "latitude": "56.0765",
    "longitude": "12.534",
    "datetime": "1997-07-29 01:00:00"
  },
  {
    "id": "292",
    "duration": "4500",
    "location": "2900 Hellerup",
    "witnesses": null,
    "colors": "gul",
    "notes": "Jupiter",
    "latitude": "55.7337",
    "longitude": "12.5655",
    "datetime": "1997-07-31 22:30:00"
  },
  {
    "id": "293",
    "duration": "1800",
    "location": "2650 Hvidovre",
    "witnesses": "2",
    "colors": "hvid, rød",
    "notes": "laserlys",
    "latitude": "55.6442",
    "longitude": "12.4772",
    "datetime": "1997-01-08 00:18:00"
  },
  {
    "id": "294",
    "duration": null,
    "location": "9900 Frederikshavn",
    "witnesses": "2",
    "colors": "hvid",
    "notes": null,
    "latitude": "57.4412",
    "longitude": "10.5336",
    "datetime": "1997-01-08 02:00:00"
  },
  {
    "id": "295",
    "duration": "180",
    "location": "9000 Aalborg",
    "witnesses": "1",
    "colors": "hvid",
    "notes": "satellit",
    "latitude": "57.0463",
    "longitude": "9.92153",
    "datetime": "1997-01-08 23:00:00"
  },
  {
    "id": "296",
    "duration": null,
    "location": "6535 Branderup",
    "witnesses": "1",
    "colors": "hvid",
    "notes": null,
    "latitude": "55.1199",
    "longitude": "9.06233",
    "datetime": "1997-03-08 23:05:00"
  },
  {
    "id": "297",
    "duration": "900",
    "location": "8400 Ebeltoft",
    "witnesses": "1",
    "colors": "hvid",
    "notes": null,
    "latitude": "56.2294",
    "longitude": "10.6046",
    "datetime": "1997-04-08 00:55:00"
  },
  {
    "id": "298",
    "duration": "840",
    "location": "5210 Odense NV",
    "witnesses": "3",
    "colors": "sølv",
    "notes": null,
    "latitude": "55.4127",
    "longitude": "10.3243",
    "datetime": "1997-04-08 20:20:00"
  },
  {
    "id": "299",
    "duration": "20",
    "location": "4900 Nakskov",
    "witnesses": "5",
    "colors": "hvid, rød",
    "notes": null,
    "latitude": "55.6864",
    "longitude": "12.5288",
    "datetime": "1997-04-08 22:10:00"
  },
  {
    "id": "300",
    "duration": "7",
    "location": "6705 Esbjerg Ø",
    "witnesses": "1",
    "colors": "metal grå",
    "notes": null,
    "latitude": "55.4821",
    "longitude": "8.47908",
    "datetime": "1997-04-08 23:40:00"
  },
  {
    "id": "301",
    "duration": "180",
    "location": "9000 Aalborg",
    "witnesses": "1",
    "colors": "hvid",
    "notes": "satellit",
    "latitude": "57.0463",
    "longitude": "9.92153",
    "datetime": "1997-05-08 22:28:00"
  },
  {
    "id": "302",
    "duration": "120",
    "location": "4000 Roskilde",
    "witnesses": null,
    "colors": null,
    "notes": "satellitter",
    "latitude": "55.5983",
    "longitude": "12.1409",
    "datetime": "1997-06-08 23:05:00"
  },
  {
    "id": "303",
    "duration": null,
    "location": "4750 Lundby",
    "witnesses": "1",
    "colors": "NULL",
    "notes": "satellit\/fly",
    "latitude": "57.7127",
    "longitude": "11.9152",
    "datetime": "1997-09-08 22:45:00"
  },
  {
    "id": "304",
    "duration": "180",
    "location": "2635 Ishøj",
    "witnesses": "2",
    "colors": "NULL",
    "notes": "satellit",
    "latitude": "55.6094",
    "longitude": "12.3583",
    "datetime": "1997-09-08 23:03:00"
  },
  {
    "id": "305",
    "duration": null,
    "location": "3400 Hillerød",
    "witnesses": null,
    "colors": "NULL",
    "notes": null,
    "latitude": "55.9286",
    "longitude": "12.3064",
    "datetime": "1997-10-08 00:10:00"
  },
  {
    "id": "306",
    "duration": null,
    "location": "7480 Vildbjerg",
    "witnesses": "1",
    "colors": "lysende",
    "notes": null,
    "latitude": "56.1965",
    "longitude": "8.7677",
    "datetime": "1997-10-08 00:45:00"
  },
  {
    "id": "307",
    "duration": null,
    "location": "7470 Karup",
    "witnesses": "1",
    "colors": "gul",
    "notes": null,
    "latitude": "56.3368",
    "longitude": "9.24209",
    "datetime": "1997-10-08 01:00:00"
  },
  {
    "id": "308",
    "duration": "1800",
    "location": "7400 Herning",
    "witnesses": null,
    "colors": "rød, hvid",
    "notes": null,
    "latitude": "56.138",
    "longitude": "8.97466",
    "datetime": "1997-10-08 02:00:00"
  },
  {
    "id": "309",
    "duration": "3600",
    "location": "9460 Brovst",
    "witnesses": "1",
    "colors": "NULL",
    "notes": null,
    "latitude": "57.0973",
    "longitude": "9.52287",
    "datetime": "1997-10-08 18:00:00"
  },
  {
    "id": "310",
    "duration": "60",
    "location": "6100 Haderslev",
    "witnesses": "5",
    "colors": "NULL",
    "notes": null,
    "latitude": "55.2501",
    "longitude": "9.49979",
    "datetime": "1997-10-08 21:00:00"
  },
  {
    "id": "311",
    "duration": "600",
    "location": "3000 Helsingør",
    "witnesses": "1",
    "colors": "hvid",
    "notes": null,
    "latitude": "56.0349",
    "longitude": "12.613",
    "datetime": "1997-10-08 21:30:00"
  },
  {
    "id": "312",
    "duration": "900",
    "location": "7480 Vildbjerg",
    "witnesses": "1",
    "colors": "NULL",
    "notes": null,
    "latitude": "56.1965",
    "longitude": "8.7677",
    "datetime": "1997-10-08 00:10:00"
  },
  {
    "id": "313",
    "duration": null,
    "location": "7400 Herning",
    "witnesses": "1",
    "colors": "NULL",
    "notes": null,
    "latitude": "56.138",
    "longitude": "8.97466",
    "datetime": "1997-11-08 00:00:00"
  },
  {
    "id": "314",
    "duration": null,
    "location": "2690 Karlslunde",
    "witnesses": "4",
    "colors": "NULL",
    "notes": null,
    "latitude": "55.5648",
    "longitude": "12.2539",
    "datetime": "1997-11-08 23:30:00"
  },
  {
    "id": "315",
    "duration": "15",
    "location": "2650 Hvidovre",
    "witnesses": "1",
    "colors": null,
    "notes": "meteor",
    "latitude": "55.6442",
    "longitude": "12.4772",
    "datetime": "1997-12-08 00:45:00"
  },
  {
    "id": "316",
    "duration": "1500",
    "location": "8660 Skanderborg",
    "witnesses": "1",
    "colors": "NULL",
    "notes": "Jupiter",
    "latitude": "56.0352",
    "longitude": "9.93179",
    "datetime": "1997-12-08 22:00:00"
  },
  {
    "id": "317",
    "duration": null,
    "location": "2620 Albertslund",
    "witnesses": "4",
    "colors": "gullig-brun",
    "notes": null,
    "latitude": "55.6586",
    "longitude": "12.3563",
    "datetime": "1997-08-13 00:06:00"
  },
  {
    "id": "318",
    "duration": "25",
    "location": "4220 Korsør",
    "witnesses": "1",
    "colors": "hvid",
    "notes": null,
    "latitude": "55.3415",
    "longitude": "11.1367",
    "datetime": "1997-08-13 21:00:00"
  },
  {
    "id": "319",
    "duration": "60",
    "location": "7430 Ikast",
    "witnesses": "1",
    "colors": null,
    "notes": "meteor",
    "latitude": "56.139",
    "longitude": "9.15479",
    "datetime": "1997-08-14 23:25:00"
  },
  {
    "id": "320",
    "duration": null,
    "location": "8381 Mundelstrup",
    "witnesses": "1",
    "colors": null,
    "notes": null,
    "latitude": "56.1922",
    "longitude": "10.0841",
    "datetime": "1997-08-15 01:00:00"
  },
  {
    "id": "321",
    "duration": "120",
    "location": "8500 Grenå",
    "witnesses": "1",
    "colors": "rød",
    "notes": null,
    "latitude": "56.4134",
    "longitude": "10.8793",
    "datetime": "1997-08-15 23:00:00"
  },
  {
    "id": "322",
    "duration": "840",
    "location": "8800 Viborg",
    "witnesses": "1",
    "colors": null,
    "notes": null,
    "latitude": "56.4469",
    "longitude": "9.40594",
    "datetime": "1997-08-16 00:00:00"
  },
  {
    "id": "323",
    "duration": "300",
    "location": "8654 Bryrup",
    "witnesses": "3",
    "colors": "rød",
    "notes": "Månen",
    "latitude": "56.0232",
    "longitude": "9.52317",
    "datetime": "1997-08-17 22:15:00"
  },
  {
    "id": "324",
    "duration": "3600",
    "location": "2700 Brønshøj",
    "witnesses": "1",
    "colors": "NULL",
    "notes": null,
    "latitude": "55.7041",
    "longitude": "12.4985",
    "datetime": "1997-08-19 23:40:00"
  },
  {
    "id": "325",
    "duration": "5",
    "location": "4470 Svebølle",
    "witnesses": "4",
    "colors": "orange",
    "notes": null,
    "latitude": "55.6508",
    "longitude": "11.2867",
    "datetime": "1997-08-23 23:20:00"
  },
  {
    "id": "326",
    "duration": "4",
    "location": "2100 København Ø",
    "witnesses": "1",
    "colors": "gul",
    "notes": "meteor",
    "latitude": "55.7024",
    "longitude": "12.5792",
    "datetime": "1997-08-26 05:01:00"
  },
  {
    "id": "327",
    "duration": "8",
    "location": "8500 Grenå",
    "witnesses": "2",
    "colors": "gul-hvid",
    "notes": "meteor?",
    "latitude": "56.4134",
    "longitude": "10.8793",
    "datetime": "1997-08-27 22:40:00"
  },
  {
    "id": "328",
    "duration": null,
    "location": "3600 Frederikssund",
    "witnesses": "4",
    "colors": "NULL",
    "notes": null,
    "latitude": "55.8418",
    "longitude": "12.0636",
    "datetime": "1997-08-28 22:15:00"
  },
  {
    "id": "329",
    "duration": "900",
    "location": "8600 Silkeborg",
    "witnesses": "3",
    "colors": "hvid",
    "notes": null,
    "latitude": "56.1695",
    "longitude": "9.54951",
    "datetime": "1997-08-30 15:30:00"
  },
  {
    "id": "330",
    "duration": "35",
    "location": "5853 Ørbæk",
    "witnesses": "2",
    "colors": "hvid, rød",
    "notes": null,
    "latitude": "55.2581",
    "longitude": "10.6704",
    "datetime": "1997-08-30 23:00:00"
  },
  {
    "id": "331",
    "duration": null,
    "location": "8300 Odder",
    "witnesses": null,
    "colors": "hvid",
    "notes": "satellit",
    "latitude": "55.9758",
    "longitude": "10.1513",
    "datetime": "1997-06-08 00:33:00"
  },
  {
    "id": "332",
    "duration": "120",
    "location": "8361 Hasselager",
    "witnesses": "1",
    "colors": "rød",
    "notes": null,
    "latitude": "56.1054",
    "longitude": "10.0935",
    "datetime": "1997-06-08 23:00:00"
  },
  {
    "id": "333",
    "duration": null,
    "location": "6854 Henne",
    "witnesses": "2",
    "colors": "NULL",
    "notes": null,
    "latitude": "55.727",
    "longitude": "8.24237",
    "datetime": "1997-09-08 01:30:00"
  },
  {
    "id": "334",
    "duration": "720",
    "location": "4380 Vipperød",
    "witnesses": "4",
    "colors": "rød",
    "notes": null,
    "latitude": "55.6696",
    "longitude": "11.7339",
    "datetime": "1997-08-30 20:55:00"
  },
  {
    "id": "335",
    "duration": "900",
    "location": "4281 Gørlev",
    "witnesses": null,
    "colors": "gul",
    "notes": null,
    "latitude": "55.5404",
    "longitude": "11.2272",
    "datetime": "1997-08-30 20:55:00"
  },
  {
    "id": "336",
    "duration": null,
    "location": "3952 Kangerlussuaq",
    "witnesses": null,
    "colors": "NULL",
    "notes": "fremkalderfejl",
    "latitude": "55.5125",
    "longitude": "8.446",
    "datetime": "1997-02-09 11:20:00"
  },
  {
    "id": "337",
    "duration": "300",
    "location": "2920 Charlottenlund",
    "witnesses": "2",
    "colors": "hvid, gul",
    "notes": null,
    "latitude": "55.7553",
    "longitude": "12.5671",
    "datetime": "1997-05-09 20:55:00"
  },
  {
    "id": "338",
    "duration": "1800",
    "location": "3630 Jægerspris",
    "witnesses": "1",
    "colors": "klar",
    "notes": "projektørlys?",
    "latitude": "55.8506",
    "longitude": "11.9917",
    "datetime": "1997-06-09 21:30:00"
  },
  {
    "id": "339",
    "duration": "60",
    "location": "2670 Greve Strand",
    "witnesses": "1",
    "colors": "klar",
    "notes": null,
    "latitude": "55.5839",
    "longitude": "12.3108",
    "datetime": "1997-07-09 21:30:00"
  },
  {
    "id": "340",
    "duration": null,
    "location": "2640 Hedehusene",
    "witnesses": "1",
    "colors": "NULL",
    "notes": null,
    "latitude": "55.652",
    "longitude": "12.1971",
    "datetime": "1997-09-09 16:00:00"
  },
  {
    "id": "341",
    "duration": null,
    "location": "4200 Slagelse",
    "witnesses": "1",
    "colors": "rød, orange",
    "notes": null,
    "latitude": "55.3871",
    "longitude": "11.3198",
    "datetime": "1997-09-14 01:00:00"
  },
  {
    "id": "342",
    "duration": "1800",
    "location": "8700 Horsens",
    "witnesses": "3",
    "colors": "NULL",
    "notes": null,
    "latitude": "55.8612",
    "longitude": "9.84448",
    "datetime": "1997-09-18 20:55:00"
  },
  {
    "id": "343",
    "duration": "1800",
    "location": "5210 Odense NV",
    "witnesses": "4",
    "colors": "rød, grøn, gul, hvid",
    "notes": null,
    "latitude": "55.4127",
    "longitude": "10.3243",
    "datetime": "1997-09-19 20:00:00"
  },
  {
    "id": "344",
    "duration": "300",
    "location": "5592 Ejby",
    "witnesses": null,
    "colors": "NULL",
    "notes": "projektørlys",
    "latitude": "55.6891",
    "longitude": "12.4368",
    "datetime": "1997-09-21 21:05:00"
  },
  {
    "id": "345",
    "duration": "8",
    "location": "5230 Odense NØ",
    "witnesses": "1",
    "colors": "hvid",
    "notes": null,
    "latitude": "55.3775",
    "longitude": "10.405",
    "datetime": "1997-09-21 22:10:00"
  },
  {
    "id": "346",
    "duration": "60",
    "location": "7500 Holstebro",
    "witnesses": "1",
    "colors": "hvidgul",
    "notes": null,
    "latitude": "56.359",
    "longitude": "8.61592",
    "datetime": "1997-09-22 00:00:00"
  },
  {
    "id": "347",
    "duration": "25",
    "location": "4720 Præstø",
    "witnesses": "1",
    "colors": "hvid",
    "notes": null,
    "latitude": "55.1179",
    "longitude": "12.0538",
    "datetime": "1997-09-25 21:15:00"
  },
  {
    "id": "348",
    "duration": null,
    "location": "7600 Struer",
    "witnesses": "1",
    "colors": "metal",
    "notes": null,
    "latitude": "56.4867",
    "longitude": "8.59514",
    "datetime": "1974-02-02 19:00:00"
  },
  {
    "id": "349",
    "duration": "3600",
    "location": "8592 Anholt",
    "witnesses": null,
    "colors": "NULL",
    "notes": null,
    "latitude": "56.7057",
    "longitude": "11.5459",
    "datetime": "1985-07-15 23:00:00"
  },
  {
    "id": "350",
    "duration": "1800",
    "location": "2980 Nivå",
    "witnesses": "2",
    "colors": "NULL",
    "notes": null,
    "latitude": "55.9233",
    "longitude": "12.4744",
    "datetime": "1989-04-17 16:30:00"
  },
  {
    "id": "351",
    "duration": "0",
    "location": "2980 Nivå",
    "witnesses": null,
    "colors": "NULL",
    "notes": null,
    "latitude": "55.9233",
    "longitude": "12.4744",
    "datetime": "1989-04-27 00:00:00"
  },
  {
    "id": "352",
    "duration": null,
    "location": "2630 Tåstrup",
    "witnesses": null,
    "colors": "NULL",
    "notes": null,
    "latitude": "55.6519",
    "longitude": "12.3176",
    "datetime": "1990-12-31 20:00:00"
  },
  {
    "id": "353",
    "duration": null,
    "location": "2980 Nivå",
    "witnesses": null,
    "colors": "NULL",
    "notes": null,
    "latitude": "55.9233",
    "longitude": "12.4744",
    "datetime": "1993-07-19 22:30:00"
  },
  {
    "id": "354",
    "duration": "6",
    "location": "8600 Silkeborg",
    "witnesses": "1",
    "colors": "NULL",
    "notes": null,
    "latitude": "56.1695",
    "longitude": "9.54951",
    "datetime": "1995-03-16 01:30:00"
  },
  {
    "id": "355",
    "duration": "30",
    "location": "4000 Roskilde",
    "witnesses": "2",
    "colors": "hvidgul",
    "notes": "meteor",
    "latitude": "55.6433",
    "longitude": "12.0819",
    "datetime": "1995-04-06 00:20:00"
  },
  {
    "id": "356",
    "duration": null,
    "location": "2970 Nørholm",
    "witnesses": "1",
    "colors": "NULL",
    "notes": null,
    "latitude": "55.6195",
    "longitude": "12.5997",
    "datetime": "1996-06-12 21:45:00"
  },
  {
    "id": "357",
    "duration": "120",
    "location": "9632 Møldrup",
    "witnesses": "2",
    "colors": "hvid",
    "notes": null,
    "latitude": "56.6141",
    "longitude": "9.50109",
    "datetime": "1997-07-08 03:00:00"
  },
  {
    "id": "358",
    "duration": "3600",
    "location": "9460 Brovst",
    "witnesses": "1",
    "colors": "hvid",
    "notes": null,
    "latitude": "57.0973",
    "longitude": "9.52287",
    "datetime": "1997-07-08 18:00:00"
  },
  {
    "id": "359",
    "duration": "10",
    "location": "9260 Gistrup",
    "witnesses": "1",
    "colors": "hvid",
    "notes": null,
    "latitude": "56.9944",
    "longitude": "9.99454",
    "datetime": "1997-08-08 00:00:00"
  },
  {
    "id": "360",
    "duration": "300",
    "location": "4900 Nakskov",
    "witnesses": "1",
    "colors": "rød",
    "notes": null,
    "latitude": "55.6864",
    "longitude": "12.5288",
    "datetime": "1997-12-08 20:55:00"
  },
  {
    "id": "361",
    "duration": "3",
    "location": "9800 Hjørring",
    "witnesses": "2",
    "colors": "gul, hvid",
    "notes": null,
    "latitude": "57.4572",
    "longitude": "9.9856",
    "datetime": "1997-08-13 00:31:00"
  },
  {
    "id": "362",
    "duration": "3",
    "location": "9800 Hjørring",
    "witnesses": "2",
    "colors": "gul",
    "notes": null,
    "latitude": "57.4572",
    "longitude": "9.9856",
    "datetime": "1997-08-13 23:00:00"
  },
  {
    "id": "363",
    "duration": "3",
    "location": "9800 Hjørring",
    "witnesses": "2",
    "colors": "NULL",
    "notes": null,
    "latitude": "57.4572",
    "longitude": "9.9856",
    "datetime": "1997-08-14 00:00:00"
  },
  {
    "id": "364",
    "duration": "180",
    "location": "2800 Glostrup",
    "witnesses": "1",
    "colors": "hvid, rød, grøn",
    "notes": "fly",
    "latitude": "55.6684",
    "longitude": "12.3759",
    "datetime": "1997-04-09 22:00:00"
  },
  {
    "id": "365",
    "duration": "180",
    "location": "2610 Rødovre",
    "witnesses": "1",
    "colors": null,
    "notes": null,
    "latitude": "55.6813",
    "longitude": "12.4547",
    "datetime": "1997-01-10 02:50:00"
  },
  {
    "id": "366",
    "duration": "20",
    "location": "3050 Humlebæk",
    "witnesses": "1",
    "colors": "hvidgul",
    "notes": null,
    "latitude": "55.9619",
    "longitude": "12.5305",
    "datetime": "1997-06-10 22:30:00"
  },
  {
    "id": "367",
    "duration": "300",
    "location": "8680 Ry",
    "witnesses": "2",
    "colors": "hvid",
    "notes": null,
    "latitude": "56.0884",
    "longitude": "9.77188",
    "datetime": "1997-07-10 21:30:00"
  },
  {
    "id": "368",
    "duration": "1200",
    "location": "5400 Bogense",
    "witnesses": "2",
    "colors": "gråhvid",
    "notes": null,
    "latitude": "55.564",
    "longitude": "10.0921",
    "datetime": "1997-07-10 22:00:00"
  },
  {
    "id": "369",
    "duration": null,
    "location": "8200 Århus N",
    "witnesses": "1",
    "colors": "hvid",
    "notes": null,
    "latitude": "56.16",
    "longitude": "10.2214",
    "datetime": "1997-12-10 22:15:00"
  },
  {
    "id": "370",
    "duration": "900",
    "location": "4943 Torrig",
    "witnesses": "2",
    "colors": null,
    "notes": null,
    "latitude": "54.9162",
    "longitude": "11.3595",
    "datetime": "1997-10-13 21:45:00"
  },
  {
    "id": "371",
    "duration": "5",
    "location": "2200 København N",
    "witnesses": "1",
    "colors": "hvid",
    "notes": null,
    "latitude": "55.7165",
    "longitude": "12.6066",
    "datetime": "1997-10-20 06:22:00"
  },
  {
    "id": "372",
    "duration": "120",
    "location": "8660 Skanderborg",
    "witnesses": "1",
    "colors": "rød",
    "notes": null,
    "latitude": "56.0352",
    "longitude": "9.93179",
    "datetime": "1997-10-23 21:30:00"
  },
  {
    "id": "373",
    "duration": null,
    "location": "4800 Nykøbing F",
    "witnesses": null,
    "colors": "NULL",
    "notes": null,
    "latitude": "54.7673",
    "longitude": "11.8768",
    "datetime": "1997-10-25 00:20:00"
  },
  {
    "id": "374",
    "duration": "1200",
    "location": "4261 Dalmose",
    "witnesses": "2",
    "colors": "hvid, rød",
    "notes": "fly",
    "latitude": "55.2955",
    "longitude": "11.4168",
    "datetime": "1997-10-26 18:00:00"
  },
  {
    "id": "375",
    "duration": "6",
    "location": "9220 Ålborg Ø",
    "witnesses": null,
    "colors": "rød",
    "notes": "meteor",
    "latitude": "56.9981",
    "longitude": "9.86947",
    "datetime": "1997-10-26 22:35:00"
  },
  {
    "id": "376",
    "duration": "8",
    "location": "8600 Silkeborg",
    "witnesses": "1",
    "colors": "brun",
    "notes": "meteor?",
    "latitude": "56.1695",
    "longitude": "9.54951",
    "datetime": "1997-10-26 22:45:00"
  },
  {
    "id": "377",
    "duration": "5",
    "location": "8654 Fakse Ladeplads",
    "witnesses": "1",
    "colors": "orange",
    "notes": "satellit",
    "latitude": "55.2209",
    "longitude": "12.169",
    "datetime": "1997-10-27 01:00:00"
  },
  {
    "id": "378",
    "duration": null,
    "location": "5000 Odense",
    "witnesses": "2",
    "colors": "rød",
    "notes": null,
    "latitude": "55.3908",
    "longitude": "10.2809",
    "datetime": "1997-10-27 17:15:00"
  },
  {
    "id": "379",
    "duration": "30",
    "location": "5220 Odense SØ",
    "witnesses": "1",
    "colors": "hvid",
    "notes": null,
    "latitude": "55.3789",
    "longitude": "10.445",
    "datetime": "1997-10-27 20:00:00"
  },
  {
    "id": "380",
    "duration": "60",
    "location": "6700 Esbjerg",
    "witnesses": "2",
    "colors": "rød, gul",
    "notes": null,
    "latitude": "55.4665",
    "longitude": "8.45208",
    "datetime": "1997-10-27 23:54:00"
  },
  {
    "id": "381",
    "duration": "2700",
    "location": "4690 Haslev",
    "witnesses": "2",
    "colors": "hvid, blå",
    "notes": "projektørlys",
    "latitude": "55.3271",
    "longitude": "11.9567",
    "datetime": "1997-03-11 17:30:00"
  },
  {
    "id": "382",
    "duration": "180",
    "location": "3000 Helsingør",
    "witnesses": null,
    "colors": "NULL",
    "notes": null,
    "latitude": "56.0349",
    "longitude": "12.613",
    "datetime": "1997-04-11 22:00:00"
  },
  {
    "id": "383",
    "duration": "60",
    "location": "2750 Ballerup",
    "witnesses": "1",
    "colors": "gul",
    "notes": null,
    "latitude": "55.7304",
    "longitude": "12.3612",
    "datetime": "1997-09-11 05:30:00"
  },
  {
    "id": "384",
    "duration": "120",
    "location": "5330 Munkebo",
    "witnesses": "1",
    "colors": null,
    "notes": "fly",
    "latitude": "55.4606",
    "longitude": "10.5473",
    "datetime": "1997-09-11 17:20:00"
  },
  {
    "id": "385",
    "duration": null,
    "location": "8740 Brædstrup",
    "witnesses": "1",
    "colors": "hvid",
    "notes": null,
    "latitude": "55.9722",
    "longitude": "9.61009",
    "datetime": "1997-09-11 22:30:00"
  },
  {
    "id": "386",
    "duration": "300",
    "location": "2200 København N",
    "witnesses": "1",
    "colors": "NULL",
    "notes": null,
    "latitude": "55.7165",
    "longitude": "12.6066",
    "datetime": "1997-10-11 17:40:00"
  },
  {
    "id": "387",
    "duration": "5",
    "location": "4200 Slagelse",
    "witnesses": "4",
    "colors": "UKENDT",
    "notes": null,
    "latitude": "55.4011",
    "longitude": "11.3708",
    "datetime": "1997-11-11 00:55:00"
  },
  {
    "id": "388",
    "duration": null,
    "location": "4200 Slagelse",
    "witnesses": "1",
    "colors": "rød",
    "notes": "fyrtårn",
    "latitude": "55.4061",
    "longitude": "11.3525",
    "datetime": "1997-11-15 23:30:00"
  },
  {
    "id": "389",
    "duration": null,
    "location": "8300 Odder",
    "witnesses": null,
    "colors": "NULL",
    "notes": null,
    "latitude": "55.9758",
    "longitude": "10.1513",
    "datetime": "1997-11-16 18:00:00"
  },
  {
    "id": "390",
    "duration": null,
    "location": "3230 Græsted",
    "witnesses": null,
    "colors": "orange, hvid",
    "notes": null,
    "latitude": "56.0632",
    "longitude": "12.2844",
    "datetime": "1997-11-19 19:30:00"
  },
  {
    "id": "391",
    "duration": "5",
    "location": "2700 Brønshøj",
    "witnesses": "1",
    "colors": "NULL",
    "notes": "meteor?",
    "latitude": "55.7041",
    "longitude": "12.4985",
    "datetime": "1997-11-26 00:12:00"
  },
  {
    "id": "392",
    "duration": "300",
    "location": "9982 Ålbæk",
    "witnesses": "1",
    "colors": "grå",
    "notes": null,
    "latitude": "57.5925",
    "longitude": "10.4084",
    "datetime": "1997-01-12 16:30:00"
  },
  {
    "id": "393",
    "duration": "360",
    "location": "2670 Greve",
    "witnesses": null,
    "colors": "hvid",
    "notes": null,
    "latitude": "55.5917",
    "longitude": "12.3053",
    "datetime": "1997-03-12 21:45:00"
  },
  {
    "id": "394",
    "duration": "9",
    "location": "2300 København S",
    "witnesses": null,
    "colors": "orange",
    "notes": "meteor?",
    "latitude": "55.6602",
    "longitude": "12.6013",
    "datetime": "1997-04-12 19:37:00"
  },
  {
    "id": "395",
    "duration": null,
    "location": "8800 Viborg",
    "witnesses": "1",
    "colors": "rødbrun",
    "notes": null,
    "latitude": "56.4469",
    "longitude": "9.40594",
    "datetime": "1997-06-12 20:00:00"
  },
  {
    "id": "396",
    "duration": "900",
    "location": "4242 Boeslunde",
    "witnesses": "4",
    "colors": "hvid",
    "notes": null,
    "latitude": "55.3015",
    "longitude": "11.2648",
    "datetime": "1997-11-12 20:00:00"
  },
  {
    "id": "397",
    "duration": "3600",
    "location": "4070 Kirke Hyllinge",
    "witnesses": "1",
    "colors": null,
    "notes": "Lysrefleks",
    "latitude": "55.7068",
    "longitude": "11.8985",
    "datetime": "1997-12-16 13:40:00"
  },
  {
    "id": "398",
    "duration": "900",
    "location": "9990 Skagen",
    "witnesses": "3",
    "colors": "NULL",
    "notes": "NB! Radar-sag",
    "latitude": "57.726",
    "longitude": "10.5845",
    "datetime": "1997-12-17 13:00:00"
  },
  {
    "id": "399",
    "duration": "60",
    "location": "4460 Snertinge",
    "witnesses": "4",
    "colors": "hvid",
    "notes": null,
    "latitude": "55.7136",
    "longitude": "11.3826",
    "datetime": "1997-12-21 17:30:00"
  },
  {
    "id": "400",
    "duration": "15",
    "location": "8585 Glesborg",
    "witnesses": "2",
    "colors": "hvid, rød",
    "notes": "fly",
    "latitude": "56.5141",
    "longitude": "10.6334",
    "datetime": "1997-12-29 22:00:00"
  },
  {
    "id": "401",
    "duration": "5",
    "location": "8600 Silkeborg",
    "witnesses": null,
    "colors": "NULL",
    "notes": null,
    "latitude": "56.1695",
    "longitude": "9.54951",
    "datetime": "0000-00-00 00:00:00"
  },
  {
    "id": "402",
    "duration": "3600",
    "location": "9550 Mariager",
    "witnesses": null,
    "colors": "orange, blå",
    "notes": null,
    "latitude": "56.6592",
    "longitude": "10.0084",
    "datetime": "1978-01-08 21:00:00"
  },
  {
    "id": "403",
    "duration": "5",
    "location": "9492 Blokhus",
    "witnesses": "2",
    "colors": "violet",
    "notes": null,
    "latitude": "57.2523",
    "longitude": "9.58424",
    "datetime": "1993-06-28 01:30:00"
  },
  {
    "id": "404",
    "duration": null,
    "location": "4300 Holbæk",
    "witnesses": "1",
    "colors": "mørk",
    "notes": null,
    "latitude": "55.7186",
    "longitude": "11.7135",
    "datetime": "1995-08-27 07:34:00"
  },
  {
    "id": "405",
    "duration": "600",
    "location": "5690 Tommerup",
    "witnesses": "1",
    "colors": "hvid",
    "notes": "NB: Videosag!",
    "latitude": "55.3405",
    "longitude": "10.1892",
    "datetime": "1997-10-07 23:30:00"
  },
  {
    "id": "406",
    "duration": "15",
    "location": "9310 Vodskov",
    "witnesses": "1",
    "colors": "hvid",
    "notes": null,
    "latitude": "57.0929",
    "longitude": "10.0634",
    "datetime": "1997-08-11 17:45:00"
  },
  {
    "id": "407",
    "duration": "180",
    "location": "8800 Viborg",
    "witnesses": "2",
    "colors": "grå",
    "notes": null,
    "latitude": "56.4469",
    "longitude": "9.40594",
    "datetime": "1997-01-12 16:00:00"
  },
  {
    "id": "408",
    "duration": "2",
    "location": "4320 Lejre",
    "witnesses": "2",
    "colors": "hvid",
    "notes": null,
    "latitude": "55.6043",
    "longitude": "11.9737",
    "datetime": "1997-03-12 20:30:00"
  },
  {
    "id": "409",
    "duration": "1800",
    "location": "8305 Østerby",
    "witnesses": "2",
    "colors": "blå",
    "notes": "projektør",
    "latitude": "55.8582",
    "longitude": "10.6031",
    "datetime": "1998-01-01 04:55:00"
  },
  {
    "id": "410",
    "duration": "300",
    "location": "2650 Hviddovre",
    "witnesses": "2",
    "colors": "NULL",
    "notes": "fly?",
    "latitude": "55.6442",
    "longitude": "12.4772",
    "datetime": "1998-06-01 15:35:00"
  },
  {
    "id": "411",
    "duration": null,
    "location": "5600 Fåborg",
    "witnesses": "1",
    "colors": "NULL",
    "notes": null,
    "latitude": "55.113",
    "longitude": "10.2417",
    "datetime": "1998-06-01 22:50:00"
  },
  {
    "id": "412",
    "duration": "180",
    "location": "3070 Snekkersten",
    "witnesses": "2",
    "colors": "rød",
    "notes": null,
    "latitude": "56.0107",
    "longitude": "12.58",
    "datetime": "1998-01-17 20:10:00"
  },
  {
    "id": "413",
    "duration": "3",
    "location": "6310 Broager",
    "witnesses": "2",
    "colors": "hvid",
    "notes": null,
    "latitude": "54.8948",
    "longitude": "9.66368",
    "datetime": "1998-01-20 21:30:00"
  },
  {
    "id": "414",
    "duration": "240",
    "location": "8700 Horsens",
    "witnesses": "3",
    "colors": "mørk, grå",
    "notes": null,
    "latitude": "55.8612",
    "longitude": "9.84448",
    "datetime": "1998-01-21 21:15:00"
  },
  {
    "id": "415",
    "duration": "900",
    "location": "3000 Helsingør",
    "witnesses": "4",
    "colors": "hvid, gul",
    "notes": null,
    "latitude": "56.0349",
    "longitude": "12.613",
    "datetime": "1998-01-28 20:00:00"
  },
  {
    "id": "416",
    "duration": "10",
    "location": "2650 Hvidovre",
    "witnesses": "1",
    "colors": "hvid",
    "notes": null,
    "latitude": "55.6442",
    "longitude": "12.4772",
    "datetime": "1998-01-28 06:40:00"
  },